center_code,center_name,hq_name,city,facility,status,region,state,country,property_lat,property_long,property_id,center_address,center_phone,center_pincode,enable_bag_guide,is_bagging_allowed,sort_code,region1,parent_center,property_facility_id
IND395006AAA,Surat_Varachha_DC,Surat_Varachha_DC (Gujarat),Surat,DC,Inactive,West,Gujarat,India,21.198683,72.87451,8394e51b-9386-4b29-a632-cde552ac35dc,"Shop No-2,Silicon Complex,Nr Yogi Chowk,Varachha - 395006",,395006,FALSE,FALSE,ST/VRD,West,Surat_Central_I_4,b1b6c00b-0dc5-42a1-97a0-1341597e0d5d
INPBAOSC,Nabha_CanttRoadDPP_D,Nabha_CanttRoadDPP_D (Punjab),Nabha,DC,Active,North,Punjab,India,30.387665,76.146774,2e0f1059-3516-46c8-9e05-96034233e35f,"Singh Enterprise, Ops Kartar colony Near military area punjab - 147201	",,147201,FALSE,TRUE,NAB/CAN,North,Chandigarh_Rajpura_GW,b6db8938-6422-42ba-b01e-3b22a939b7aa
INMHAAYU,Sangola_PatilChowk_DPP,Sangola_PatilChowk_DPP (Maharashtra),Sangola,DC,Active,West,Maharashtra,India,17.43793,75.19576,bfbb177b-fda0-4853-81a2-f1f925b03f84,"Shivbhavani Communication ,  Front of State Bank of India,  Wadegaon Naka,  Sangola  Tal- Sangola Dist- Solapur  Maharashtra 413307",,413307,FALSE,TRUE,SAN/PAT,West,Solapur_HydRoad_I,86c245b8-b873-44ae-8b9a-3ca403522bb1
IND524132AAA,Venktagiri_TirupthiRd_D,Venktagiri_TirupthiRd_D (Andhra Pradesh),Venkatagiri,DC,Active,South,Andhra Pradesh,India,13.953952,79.595535,a7fe89f5-b8fc-4de8-afe9-75c937ef9a56,"Near St Francis School, Venkatagari.Venkatagiri -524132",9000447066,524132,FALSE,TRUE,VKI/VKG,South,Tirupati_Tiurchanur_I,87c4f725-16aa-413c-a360-7354beeec4d3
IND184121AAA,Samba_Wardno13_D,Samba_Wardno13_D (Jammu & Kashmir),Samba,DC,Active,North,Jammu & Kashmir,India,32.559517,75.120026,8c9c522a-bb19-4130-a028-7fffbbd514fa,"Ward No.13, Border Roadm, Samba, J&K 184121",9797433860,184121,FALSE,TRUE,SMBX/WRD,North,Jammu_GangyalCRPF_H,be4806ee-b5e5-4d11-bdcf-fd4d191d067d
INKAAARA,Bangalore_BellndurNew_D,Bangalore_BellndurNew_D (Karnataka),Bangalore,DC,Active,South,Karnataka,India,12.926755,77.67593,fd62eb02-a731-4951-93eb-06d42959c1b6,"#89/5, KNO-1083, Bellandur, Back side of Central mall beside Karnataka bank Bengaluru-560103",8527643624,560103,FALSE,TRUE,BNG/BLN,South,Bangalore_Soukyaroad_I,8848cfb5-69f9-451c-ab6f-2d00b7d40abf
INKAARCA,Bangalore_HegdeNagar_D,Bangalore_HegdeNagar_D (Karnataka),Bangalore,DC,Active,South,Karnataka,India,13.066914,77.63845,1c3a14ad-a888-443a-876f-c35dbc511d70,"#112, Shiradi Sai Nagar, 2nd Cross, Hegde Nagar, Bangalore 560077",8867550887,560077,FALSE,TRUE,BAN/GDE,South,Bangalore_Soukyaroad_I,8848cfb5-69f9-451c-ab6f-2d00b7d40abf
IND742401AAA,Ghanashyampur_NditaDPP_D,Ghanashyampur_NditaDPP_D (West Bengal),Ghanashyampur,DC,Inactive,East,West Bengal,India,23.784027,88.10317,edd90420-699e-4eb2-adff-2fc2f4a4944d,"Nandita Enterprise,Vill-Ghanashyampur,Po=Makhaltore,Dist-Murshidabad,Pin=742401",,742401,FALSE,FALSE,GHN/NDT,East,Berhampore_Central_I_2,41c35dd8-422b-46e9-a051-2a8f01de6494
IND741302AAA,Nabadwip_ChndiDPP_D,Nabadwip_ChndiDPP_D (West Bengal),Nabadwip,DC,Inactive,East,West Bengal,India,23.407276,88.36439,8b3cebd2-559d-42fb-abbc-1064fbc401d0,"NABADWIP CHANDITOLA, PO. NABAWIP, PS. NABADWIP, PIN.741302",,741302,FALSE,FALSE,NDAE/NDW,East,Kolkata_Dankuni_P,ca2d8a0c-fa7a-47f7-9cd2-27f711128b32
IND563116AAA,Bethamangala_FshryOFC_D,Bethamangala_FshryOFC_D (Karnataka),Bethamangala,DC,Inactive,South,Karnataka,India,13.005297,78.32352,430d1b69-0074-456e-936e-89af1b4870f7,"Bethmangala New Town Bus stop, opposite to Fishery Office, Bethmangala -563116",9611436540,563116,FALSE,TRUE,BTH/FSH,South,Bangalore_Soukyaroad_I,8848cfb5-69f9-451c-ab6f-2d00b7d40abf
IN506001A1D,Warangal_Pegadapally_DPP,Warangal_Pegadapally_DPP (Telangana),Warangal,DC,Inactive,South,Telangana,India,18.021833,79.553925,4121e6ed-f4aa-46fa-91c2-5f7ad84121bc,"SHUTTER NO G1 KUDA APARTMENTS, HANAMKONDA, WARANGAL,NEAR THIRUMALA BAR,506001",,506001,FALSE,FALSE,WRN/PGP,South,Warangal_HunterRd_I,0c7d6e52-8031-4e76-a308-9d4d5b47f796
IN125001A1B,Hisar_Dabra_P,Hisar_Dabra_P (Haryana),Hisar,PC,Inactive,North,Haryana,India,29.195805,75.68764,abbead45-3bb4-4f11-a285-a961ab2dfaa2,"Khasra No. 1179/2/2/2/1179/9/9/1/3, Village beer, Sirsa Road, Hisar, 125001",9813194213,125001,FALSE,FALSE,HSR/DBA,North,Hisar_Dabra_H,d5f6d87f-76f9-4d6b-a721-cce24d3a8944
IND614602AAA,Pattukotai_anthniyr_D,Pattukotai_anthniyr_D (Tamil Nadu),Pattukkottai,DC,Active,South,Tamil Nadu,India,10.420616,79.32406,f95d2567-c4bb-4a62-a4a9-97c6c421d369,"168 A, anthoniyar temple street , pattukottai - 614602 , thanjore",9655054218,614602,FALSE,TRUE,PKT/ANT,South,Tiruchi_Navalur_H,76cda58d-8186-46dd-9969-086aa6b7cc56
IND140001AAA,RoopNagar_ChotiHvl_DC,RoopNagar_ChotiHvl_DC (Punjab),Rupnagar,DC,Inactive,North,Punjab,India,30.959839,76.52,eb6988f7-d680-4870-8825-f7076fb12545,Vill Choti Haveli Hadbast No 48 Tehsil Ropar Disst Rupnagar,,140001,FALSE,TRUE,RPAR/CHD,North,Chandigarh_Mehmdpur_P,344cc57d-4982-4817-b4fb-7d11b61308e0
INJKAQJU,Rajouri_Kalakot_D,Rajouri_Kalakot_D (Jammu & Kashmir),Rajouri,DC,Active,North,Jammu & Kashmir,India,33.212963,74.41706,5f83926e-174c-481c-ab83-e337d0a58cfc,"MAIN ROAD CHANPUR, NEAR DAK BANGLA, KALAKOT-185202",7006791510,185202,FALSE,TRUE,RAJ/ALA,North,Jammu_GangyalCRPF_H,be4806ee-b5e5-4d11-bdcf-fd4d191d067d
INPBAAEW,Dhuri_Ward15B_DPP,Dhuri_Ward15B_DPP (Punjab),Dhuri,DC,Inactive,North,Punjab,India,30.379128,75.864075,d335ec9d-49a5-471b-8ca0-5c7f6467733c,Chetan communication Prop Ashwani Kumar Bagrian road Nehru colony Back side petrol pump Dhuri -148024,,148024,FALSE,FALSE,DHR/WRD,North,Chandigarh_Mehmdpur_P,344cc57d-4982-4817-b4fb-7d11b61308e0
INTNANUT,Karambakkudi_Central_D,Karambakkudi_Central_D (Tamil Nadu),Karambakkudi,DC,Active,South,Tamil Nadu,India,10.44794,79.1421,a4ca66b1-bcfb-474e-9807-8ab2c2055585,"No.3/7,Neyveli road,South Arisana Street,Karambakkudi-622302.",9655054218,622302,FALSE,TRUE,KRB/CNT,South,Tiruchi_Navalur_H,76cda58d-8186-46dd-9969-086aa6b7cc56
INHPAAEA,DharampurHP_PWDofc_DPP,DharampurHP_PWDofc_DPP (Himachal Pradesh),DharampurHP,DC,Active,North,Himachal Pradesh,India,31.7994,76.7552,9c4afd94-8e0e-439d-be62-06b632a8c6c6,"VPO DHARAMPUR (NEAR DHARAMPUR BRIDGE) TEH DHARAMPUR, DISTT MANDI, HP 175040",,175040,FALSE,TRUE,DHM/PWD,North,Mandi_Behna_I,a724f355-47b5-46de-87fb-774b8230bcfe
IND135001AAA,YamunaNagar_DC,YamunaNagar_DC (Haryana),Yamuna Nagar,DC,Inactive,North,Haryana,India,30.134357,77.29579,9ead2088-7d01-4e29-85a0-f2218327eb21,"House No 262, Behind Kaveri Gas Agency, Model Colony, Yamunanagar, Haryana 135001.",,135001,FALSE,TRUE,JUD/JUD,North,Chandigarh_Mehmdpur_P,344cc57d-4982-4817-b4fb-7d11b61308e0
IND452015AAA,Indore_Marimata,Indore_Marimata (Madhya Pradesh),Indore,DC,Inactive,West,Madhya Pradesh,India,22.73452,75.84686,b9f1aba3-552f-4a07-89fa-92da7e97cf64,"22 North Gadra Khedi, Near Mahesh Guardline, Indore, Madhya Pradesh 452015",,452015,FALSE,TRUE,IDR/MAR,West,Indore_Las,2f9929f5-9755-4d42-a3d7-b7ae26e52fb2
INKAAMKQ,Sindagi_BandalCross_DPP,Sindagi_BandalCross_DPP (Karnataka),Sindagi,DC,Inactive,South,Karnataka,India,16.915487,76.230865,102c61b6-e5d4-4ba3-8274-7eeec87b8313,Bandal cross near Vijayapur main road sindagi pin code 586128,,586128,FALSE,FALSE,SND/BCO,South,Bijapur_Jamakhandi_I,11e925ce-eb8d-49d2-9371-10b5761c1be7
IND635001AAA,Krishnagiri_BnglorRd_D,Krishnagiri_BnglorRd_D (Tamil Nadu),Krishnagiri,DC,Inactive,South,Tamil Nadu,India,12.535548,78.20367,d2d5fd9f-1527-4fd5-b142-09fe58a17644,"4/281 , Banglore road , Krishnagiri - 635001 , Dharmapuri DT",8838082738,635001,FALSE,TRUE,KPN/BNG,South,Bangalore_Soukyaroad_GW,8933c38b-ba8d-482d-a64e-9ae9788cc9a7
IND721102AAA,Midnapore_Talkui_D,Midnapore_Talkui_D (West Bengal),Midnapore,DC,Inactive,East,West Bengal,India,22.44135,87.3338,93565b84-971d-4977-9a69-b88f234d7494,"Circle No 5,Talkui,,P.O- Abas, Police station- Kotwali, ,Pin code- 721102 , Paschim Midnapore",7908465827,721102,FALSE,FALSE,MDN/TAL,East,Kharagpur_Nimpura_I,26d65f7d-497e-48a0-99fa-407dfbb0bbc0
INJKARNW,Udhampur_Manwal_D,Udhampur_Manwal_D (Jammu & Kashmir),Udhampur,DC,Active,North,Jammu & Kashmir,India,32.756004,75.141304,1fbeb8a4-0568-4791-804c-e4c8ae65e0f8, Near Govt. HR.Sec. School Kathar Manwal 182127,9797611183,182127,FALSE,TRUE,UDH/MAN,North,Jammu_GangyalCRPF_H,be4806ee-b5e5-4d11-bdcf-fd4d191d067d
INKAAAUN,Bangalore_ITPLRd_D,Bangalore_ITPLRd_D (Karnataka),Bangalore,DC,Active,South,Karnataka,India,12.985536,77.74533,1410b07e-439f-4dac-8b32-595ae7bd8f24,"No.19, Ground Floor, Pattandur Agrahara, Near G R Tech Park, ITPL Road, Whitefield, Bangalore-560066",9206679032,560066,FALSE,FALSE,BAN/ITD,South,Bangalore_Soukyaroad_I,8848cfb5-69f9-451c-ab6f-2d00b7d40abf
IND560043AAB,Bengaluru_NewBnswd_DC,Bengaluru_NewBnswd_DC (Karnataka),Bangalore,DC,Active,South,Karnataka,India,13.005576,77.6519,ed5796a5-b45c-4bce-88df-7ad9341c0067,"#2 C O M B R Layout Benniganahalli , Bangalore - 560043",6360706480,560043,FALSE,TRUE,BLR/BWD,South,Bangalore_Soukyaroad_I,8848cfb5-69f9-451c-ab6f-2d00b7d40abf
INKAAOHM,Bangalore_SatelliteTwn_L,Bangalore_SatelliteTwn_L (Karnataka),Bangalore,SC,Active,South,Karnataka,India,12.95463,77.54483,ba1afb0a-1e10-42b2-9de1-a902bc99e1c6,"property 3,4, New Timber Yard Layout, Gali Anjaneya Temple, Bangalore Karnataka 560026",,560026,FALSE,TRUE,BAN/SAT,South,Bangalore_Soukyaroad_GW,8933c38b-ba8d-482d-a64e-9ae9788cc9a7
INHPAQKG,Nagwain_Sainj_D,Nagwain_Sainj_D (Himachal Pradesh),Nagwain,DC,Active,North,Himachal Pradesh,India,31.76953,77.303505,bc51287e-f783-456c-8b53-54a899aa138a,"Near HCC Colony Larji Road, Sainj 175134",8580677454,175134,FALSE,TRUE,NAG/AIN,North,Mandi_Behna_I,a724f355-47b5-46de-87fb-774b8230bcfe
IN721659A1A,Bajkul_Brajalalchwk_D,Bajkul_Brajalalchwk_D (West Bengal),Bajkul,DC,Inactive,East,West Bengal,India,22.023485,87.82126,7330b2ed-a70a-42e9-b74a-f059bd60bdfe,"VILL-Gargram,P.o-Brajalalchak,P.S-Chandipur.DIST-Purba Medinipur.PIN-721659",,721659,FALSE,TRUE,BAJ/BRJ,East,Kharagpur_Malancha_I,de7d3d15-a2fc-4b91-885a-b67c13d111cb
IND184104AAA,Kathua_BOB_D,Kathua_BOB_D (Jammu & Kashmir),Kathua,DC,Active,North,Jammu & Kashmir,India,32.39168,75.51528,c8439b43-7f48-4334-95e5-47816c97c93b,"Khajuria Complex Opp BOB, Patel Nagar, Kathua (J&K) - 184104",9988747539,184104,FALSE,TRUE,KTHU/BOB,North,Jammu_GangyalCRPF_H,be4806ee-b5e5-4d11-bdcf-fd4d191d067d
INKAAAWE,Bangalore_SoukyaReturn_L,Bangalore_SoukyaReturn_L (Karnataka),Hoskote,SC,Inactive,South,Karnataka,India,12.960498,77.82113,1196d679-0b47-4dc2-9b87-adf56c3bfd9b,"SY No. 37, 4-25,38,39,5,4 Hobli Pura,Anagondanhalli,Hoskote Taluk,Bengaluru-562114",9739692260,562114,FALSE,TRUE,BLR/SRL,South,Bangalore_Soukyaroad_GW,8933c38b-ba8d-482d-a64e-9ae9788cc9a7
INHPAADV,Kullu_ThashiBrara_D,Kullu_ThashiBrara_D (Himachal Pradesh),Kullu,DC,Active,North,Himachal Pradesh,India,31.94856,77.11276,8427bca7-b500-4cb8-8bfc-814bcb482b0f,Thashi Brara p/o puid Teh &distt kullu pin code 175101,8221988148,175101,FALSE,TRUE,KLU/THB,North,Mandi_Behna_I,a724f355-47b5-46de-87fb-774b8230bcfe
INUPAOVR,Farrukhabad_RamBanquet_D,Farrukhabad_RamBanquet_D (Uttar Pradesh),Farrukhabad,DC,Active,North,Uttar Pradesh,India,27.38655,79.614655,5cdb9d35-0a28-4514-bf2d-da043f17231f,"Panchalghat Road Maseni Chauraha Farrukhabad, Uttar Pradesh-209601",9838209721,209601,FALSE,TRUE,FAR/RAM,North,Mainpuri_Bypassroad_I,3c607466-03c6-44fd-8746-1c610f3dcd91
IND721139AAB,Panskura_Central_D_2,Panskura_Central_D_2 (West Bengal),Panskura,DC,Inactive,East,West Bengal,India,22.395214,87.71601,b3b12a78-d15c-457c-9c23-b9ff3f24fc79,"Mouja :- Tilandapur, P.S:- Panskura, Block:- Panskura 1, Dist:- Purba Midinipore, West Bengal 721139",,721139,FALSE,FALSE,PKU/CNT,East,Kolkata_Dankuni_P,ca2d8a0c-fa7a-47f7-9cd2-27f711128b32
INKAAQOA,Bangalore_Madivala_L,Bangalore_Madivala_L (Karnataka),Bangalore,SC,Active,South,Karnataka,India,12.777558,77.72956,623f213a-4763-4de7-82f7-d897e50cc15b,"Survey No.208/3,Bandapura Village,Marsur Post,Anekal Taluk,Bangalore - 562106",,562106,FALSE,TRUE,BLRE,South,Bangalore_Soukyaroad_GW,8933c38b-ba8d-482d-a64e-9ae9788cc9a7
INKAAQXV,Bangalore_Bommasandra_L,Bangalore_Bommasandra_L (Karnataka),Bangalore,SC,Active,South,Karnataka,India,12.8134,77.68275,357638d5-cf64-4a0c-ab36-f8f9599af757,"Plot No.60-D of Bommasandra Industrial Area (Survey No.301) Bommasandra Village,Attibele Hobli,Anekal Taluk,Bangalore - 560099",9342893427,560099,FALSE,TRUE,BLRT,South,Bangalore_Soukyaroad_GW,8933c38b-ba8d-482d-a64e-9ae9788cc9a7
IND802119AAA,Dumraon_Nishangr_D,Dumraon_Nishangr_D (Bihar),Dumraon,DC,Inactive,East,Bihar,India,25.557343,84.14383,aa3d315c-b96d-4532-bbad-05d6df3ab223,"Nishanagar, Near Bank of Baroda, Dumrao, Bihar-802119",,802119,FALSE,FALSE,DURE/NGR,East,Sasaram_Madaini_I,296e0fa1-ab83-477c-9b9a-5937dcc2e45a
INPBAQWZ,Abohar_DaulatPura_D,Abohar_DaulatPura_D (Punjab),Abohar,DC,Active,North,Punjab,India,30.15869,74.21026,3be5b142-1a33-4446-9371-8efea235905f,"Opposite Vikas adarsh school, malout road , abohar,Fazilka, 152116",9356307000,152116,FALSE,TRUE,ABO/DAU,North,Bathinda_KrishnaNagar_I,a0c3e6dc-067f-4c40-882c-d18d63757ea0
INTNARTA,Peravurani_Nattanikkottai_D,Peravurani_Nattanikkottai_D (Tamil Nadu),Peravurani,DC,Active,South,Tamil Nadu,India,10.278477,79.20477,a1194821-ac0f-4547-9009-4729c5371a8c,164/9 Nattanikkottai (North) Peravurani Tamilnadu-614804,7373925193,614804,FALSE,TRUE,PER/NAT,South,Tiruchi_Navalur_H,76cda58d-8186-46dd-9969-086aa6b7cc56
IND241124AAB,Shahabad_KDRoad_D,Shahabad_KDRoad_D (Uttar Pradesh),Shahabad,DC,Active,North,Uttar Pradesh,India,27.661173,79.93787,9170ba72-00ad-4b02-8761-3df2856f02ba,"Moh. Allahpur Saidikhel, Sahabad Dehat, Main Highway, Sahjhanpur, Hardoi, UP 241124",,241124,FALSE,TRUE,AJI/KDR,North,Mainpuri_Bypassroad_I,3c607466-03c6-44fd-8746-1c610f3dcd91
INBRALSX,KankerBR_Obipur_DPP,KankerBR_Obipur_DPP (Bihar),KankerBR,DC,Inactive,East,Bihar,India,24.749722,84.1174,4519778f-d96d-44f8-bbba-045e04e16508,"Obipur Kanker NTPC navinagar, opp. Gautam middle school, 824303",,824303,FALSE,FALSE,KNK/OBP,East,Sasaram_Madaini_I,296e0fa1-ab83-477c-9b9a-5937dcc2e45a
IND609001AAA,Mylduthuri_Thiruviz_D,Mylduthuri_Thiruviz_D (Tamil Nadu),Mayiladuthurai,DC,Active,South,Tamil Nadu,India,11.10755,79.65133,9c7e2243-cc35-42df-828d-436e30b1c048,"No.5, Thennamarakudi Road, Thiruvizhandur, Mayiladuthurai - 609001,",9787798554,609001,FALSE,TRUE,MV/THI,South,Tiruchi_Navalur_H,76cda58d-8186-46dd-9969-086aa6b7cc56
INWBAAPP,AmaDubi_Silda_DPP,AmaDubi_Silda_DPP (West Bengal),Ama Dubi,DC,Active,East,West Bengal,India,22.618414,86.7528,6bc6870a-ba8c-4e3c-8cb0-d01288e7c89b,"Sandapara, Belpahari, Jhargram, West Bengal, Pin- 721501",,721501,FALSE,TRUE,AMD/SLD,East,Kharagpur_Nimpura_I,26d65f7d-497e-48a0-99fa-407dfbb0bbc0
INPBAAGJ,TalwandiSabo_GillanWala_D,TalwandiSabo_GillanWala_D (Punjab),Talwandi Sabo,DC,Active,North,Punjab,India,29.984966,75.08327,2d0b73e4-f849-401a-9a36-72c850ce374a,Telephone exchange road Gillan Wala Khoo,6239416079,151302,FALSE,TRUE,TAL/GNW,North,Bathinda_KrishnaNagar_I,a0c3e6dc-067f-4c40-882c-d18d63757ea0
IND140401AAA,Rajpura_DC,Rajpura_DC (Punjab),Rajpura,DC,Inactive,North,Punjab,India,30.478924,76.558815,d8f917c5-808a-4f54-a3db-f5f69b0a9b7d,Choda Bazar near ramgariya Gurudwara Rajpura-140401,,140401,FALSE,TRUE,RPJ/RPJ,North,Chandigarh_Mehmdpur_P,344cc57d-4982-4817-b4fb-7d11b61308e0
INWBANCV,Midnapore_Pragatipally_D,Midnapore_Pragatipally_D (West Bengal),Midnapore,DC,Active,East,West Bengal,India,22.413303,87.33448,ebe127dc-14c7-4262-8f3a-bbfff18ac7a7,"Ballavpur PragatiPallyMidnapore, West Bengal Pin- 721101",7908465827,721101,FALSE,TRUE,MDN/PPL,East,Kharagpur_Nimpura_I,26d65f7d-497e-48a0-99fa-407dfbb0bbc0
IND461001AAA,Hoshangabad_MnRDDPP_D,Hoshangabad_MnRDDPP_D (Madhya Pradesh),Hoshangabad,DC,Inactive,West,Madhya Pradesh,India,22.755808,77.716774,8f387360-a8d0-4025-a5fe-f1fc2b117208,satrasta tehseel karyalay ke samne main road hoshangabad-461001,,461001,FALSE,FALSE,HSH/MNR,West,Bhopal_Central_H_1,c54e1dc4-4971-4911-a5bf-2751886e9b1f
INTNAOZK,Kulithalai_ShanmugaTheatre_D,Kulithalai_ShanmugaTheatre_D (Tamil Nadu),Kulithalai,DC,Inactive,South,Tamil Nadu,India,10.93943,78.42342,c0ec702c-bc84-4c58-a48e-9ad8a1c3e1f8,"95/2f,Shanmuga Theatre Backside, Kulithalai-639104",8925330862,639104,FALSE,FALSE,KUL/SHA,South,Tiruchi_Navalur_H,76cda58d-8186-46dd-9969-086aa6b7cc56
IND125121AAA,Barwala_Central_DPP_1,Barwala_Central_DPP_1 (Haryana),Barwala,DC,Inactive,North,Haryana,India,29.360336,75.90175,052fd531-106d-4b68-a949-8287058682ba,"""PRINCE SERVICES 
SHOP NO=27,UPKAR MARKET 
BARWALA -125121
DISTT. HISSAR
HARYANA""",,125121,FALSE,FALSE,BRW/CNT,North,Hisar_Dabra_H,d5f6d87f-76f9-4d6b-a721-cce24d3a8944
IND721306AAA,Kharagpur_DC,Kharagpur_DC (West Bengal),Kharagpur,DC,Inactive,East,West Bengal,India,22.305786,87.30824,1d26be0d-9d3e-419b-b6c1-b7f807f39831,"PremBazar, Purba Pathri, Hijli Co-Operative , West Midnapore, West Bengal-721306",8016326179,721306,FALSE,TRUE,KGP/KGP,East,Kharagpur_Nimpura_I,26d65f7d-497e-48a0-99fa-407dfbb0bbc0
INTSAALS,Manthani_PostOffice_DPP,Manthani_PostOffice_DPP (Telangana),Manthani,DC,Inactive,South,Telangana,India,18.653612,79.66835,9491db34-3e7c-400b-ba8e-2db7188e625a,"Shiva Sakthi Mobiles, Manthani, Telangana",,505184,FALSE,FALSE,MNT/POS,South,Karimnagar_KamnHbRD_I,9a4496f9-1b61-4b9c-b257-d92289e74135
IND174101AAB,Nalagarh_Central_DPP_2,Nalagarh_Central_DPP_2 (Himachal Pradesh),Nalagarh,DC,Inactive,North,Himachal Pradesh,India,31.047932,76.719696,ccff0cb0-9b75-4a9a-875c-56133118aae4,"WARD NO-1, FRIENDS COLONY, NEAR INDANE GAS AGENCY, CHUHUWAL ROAD,",,174101,FALSE,TRUE,GANL/CNT,North,Chandigarh_Mehmdpur_P,344cc57d-4982-4817-b4fb-7d11b61308e0
IN731303A1A,Labpur_Fullara_D,Labpur_Fullara_D (West Bengal),Labpur,DC,Active,East,West Bengal,India,23.81064,87.79979,18559999-f8ca-4cc8-b76c-091014d02efc,"Labpur (Guru pally ) ,P.o+P.s - Labpur pin code- 731303",8016058010,731303,FALSE,TRUE,LBP/FUL,East,Berhampore_Central_I_2,41c35dd8-422b-46e9-a051-2a8f01de6494
INKAAAXC,Bangalore_HebbalTemp_I,Bangalore_HebbalTemp_I (Karnataka),Bangalore,IPC,OnBoarding,South,Karnataka,India,13.06075,77.6089,4dcdbd10-13d4-4fa9-8bbe-0ab4117266d8,"#50, Dasarahalli, 2nd cross, 5th Main road, Maruthi Layout, Bangalore 560024",,560024,TRUE,TRUE,BLR/HTL,South,Bangalore_Soukyaroad_I,8848cfb5-69f9-451c-ab6f-2d00b7d40abf
INTNAOYJ,Mayiladuthurai_MaraiyurRoad_I,Mayiladuthurai_MaraiyurRoad_I (Tamil Nadu),Mayiladuthurai,IPC,Active,South,Tamil Nadu,India,11.090161,79.62407,8ad21e24-df24-44e1-b3e9-b90f2c22bc24,"No 1 Maraiyur Road Sitharkadu Mayiladuthurai Taluk, Nagapattinam Tamilnadu 609001",8610339570,609001,TRUE,TRUE,MAY/MAR,South,Tiruchi_Navalur_H,76cda58d-8186-46dd-9969-086aa6b7cc56
INHRAAJV,Bahal_Obra_DPP,Bahal_Obra_DPP (Haryana),Bahal,DC,Inactive,North,Haryana,India,28.67244,75.76393,467f295c-7530-4eb4-98c0-381b34669dea,Main Bus Stand Obra Bhiwani Road - Obra 127028,,127028,FALSE,FALSE,BHL/OBR,North,Hisar_Dabra_H,d5f6d87f-76f9-4d6b-a721-cce24d3a8944
INKAANUJ,Devanahalli_Central_D,Devanahalli_Central_D (Karnataka),Devanahalli,DC,Active,South,Karnataka,India,13.245138,77.707054,bace4228-e64e-4da0-8b65-1b7123e1f301,"19, Raja Rao Layout, Tippu Sulthan Road, Devanahalli, Bangalore-562110",9731002018,562110,FALSE,TRUE,DNH/CNT,South,Bangalore_Soukyaroad_I,8848cfb5-69f9-451c-ab6f-2d00b7d40abf
INUPABBK,Agra_Lakhanpur_L,Agra_Lakhanpur_L (Uttar Pradesh),Agra,SC,Inactive,North,Uttar Pradesh,India,27.20193,77.92105,823663b5-fec5-4cc3-8bb1-d5740186194c,"B-37, B-38, Industrial Area, EPIP, Near Lakhanpur, Agra, UP 282007",,282007,FALSE,FALSE,AGR/LKN,North,Agra_Sunari_H,594b4cf9-60cb-4ec2-a5d3-e71b7f022fac
IND401209AAA,Mumbai_Virar_DC,Mumbai_Virar_DC (Maharashtra),Vasai,DC,Inactive,West,Maharashtra,India,19.42537,72.82458,8aba6a65-c6a5-4750-9ac7-3a17836bb6a8,"new patel coop soc , shop -9 , near Amantaran resto-Bar , tulinj road , virar east",9702327759,401209,FALSE,TRUE,BOM/VIR,West,Mumbai_MiraRdIndEstate_I,4c747681-64a3-4947-8b77-28c5bd1a1d1c
INKAAPTJ,Bangalore_RTNagar_D,Bangalore_RTNagar_D (Karnataka),Bangalore,DC,Active,South,Karnataka,India,13.0216,77.59799,a4e5eabf-4376-42c7-bd9b-844066ca3602,"15th Cross Rd, Govindaraj Garden, RT Nagar, Bengaluru, Karnataka 560032",8050121271,560032,FALSE,TRUE,BAN/NTA,South,Bangalore_Soukyaroad_I,8848cfb5-69f9-451c-ab6f-2d00b7d40abf
IN473331A1C,AshokNagar_Chaigar_D,AshokNagar_Chaigar_D (Madhya Pradesh),Ashok Nagar,DC,Active,West,Madhya Pradesh,India,24.584625,77.73081,ef23fca4-81c5-441d-8f01-7d0ced6b6260,"Ward No 2, R.T.O Office ke Shamne, By-pass Road, Ashok Nagar, Madhya Pradesh 473331",9993709805,473331,FALSE,TRUE,ASN/CHG,West,Guna_ModlTnwColny_I,42d607bf-381a-42ee-8afe-9687aafca9f0
INKAAARB,Bangalore_Indirangr_D,Bangalore_Indirangr_D (Karnataka),Bangalore,DC,Inactive,South,Karnataka,India,12.982497,77.63898,b45fa7ed-8f22-4a41-80e9-b60b37238648,"No 621, 2nd main Road, Indiranagar 1st stage Bangalore Karnataka-560008",9632491339,560038,FALSE,TRUE,BNG/INN,South,Bangalore_Soukyaroad_I,8848cfb5-69f9-451c-ab6f-2d00b7d40abf
IND743286AAA,Swarupnagr_MLogsDPP_D,Swarupnagr_MLogsDPP_D (West Bengal),Swarupnagar,DC,Inactive,East,West Bengal,India,22.812807,88.85692,8b47dc6f-b0d9-432b-9d85-a20057968ceb,"M Logistics, PO Swarupnagar Near swarupnagar BD office 743286",,743286,FALSE,TRUE,SWP/MLG,East,Kolkata_Dankuni_P,ca2d8a0c-fa7a-47f7-9cd2-27f711128b32
INWBARNL,Kharagpur_Vidyasagar_H,Kharagpur_Vidyasagar_H (West Bengal),Kharagpur,HUB,OnBoarding,East,West Bengal,India,22.36,87.36,9c72a699-a888-447c-b8e4-70efed1daf5e,"Mahindra & Mahindra Ltd, Spare Business Unit, G2, Vidyasagar Industrial estate, New Town Road, Kharagpur, Paschim Midnapore,721301,West Bengal ",,721301,FALSE,FALSE,KHA/YAS,East,Kharagpur_Nimpura_I,26d65f7d-497e-48a0-99fa-407dfbb0bbc0
INRJALQG,Bari_ThakurPada_DPP,Bari_ThakurPada_DPP (Rajasthan),Bari,DC,Inactive,North,Rajasthan,India,26.638935,77.62515,2f3ff78c-e883-4117-94d1-b64bc3ed33ad,"Thakur Pada, Bari-328021",,328021,FALSE,FALSE,BAR/TKP,North,Agra_Sunari_H,594b4cf9-60cb-4ec2-a5d3-e71b7f022fac
IND242307AAB,Tilhar_SingCLNY_D,Tilhar_SingCLNY_D (Uttar Pradesh),Tilhar,DC,Active,North,Uttar Pradesh,India,27.968138,79.74041,7ed24840-4406-463b-8656-a219da097fee,"Plot No-204, Singh Colony, Post Tilhar, UP 242307",7465830764,242307,FALSE,TRUE,TLH/SNG,North,Mainpuri_Bypassroad_I,3c607466-03c6-44fd-8746-1c610f3dcd91
IN635109A1B,Hosur_BypassrRD_D,Hosur_BypassrRD_D (Tamil Nadu),Hosur,DC,Active,South,Tamil Nadu,India,12.734984,77.841545,b3ec7924-9663-4e11-80db-d38b77ba82e2,"10/77-28,By pass road,Hosur-635109",9.20E+11,635109,FALSE,TRUE,HOS/BYP,South,Bangalore_Soukyaroad_I,8848cfb5-69f9-451c-ab6f-2d00b7d40abf
INTNAAPJ,Ayyampettai_Salai_DPP,Ayyampettai_Salai_DPP (Tamil Nadu),Ayyampettai,DC,Active,South,Tamil Nadu,India,10.892833,79.18901,da327199-3a3c-4618-84bb-8400da04f709,"Door No 340,Salai Street,Ayyampettai",,614201,FALSE,TRUE,AYP/SLI,South,Tiruchi_Navalur_H,76cda58d-8186-46dd-9969-086aa6b7cc56
IND461775AAA,Pipariya_SndyaDPP_D,Pipariya_SndyaDPP_D (Madhya Pradesh),Pipariya,DC,Inactive,West,Madhya Pradesh,India,22.761362,78.35257,bcfb3cca-ae93-43ff-8d3b-c5a8f723ea79,"Ayush tiwari maharana pratap ward near PPS school sandiya road pipariya, MP",,461775,FALSE,TRUE,PPI/SRD,West,Bhopal_Central_H_1,c54e1dc4-4971-4911-a5bf-2751886e9b1f
IND741502AAA,Hanskhali_Bagula_D,Hanskhali_Bagula_D (West Bengal),Hanskhali,DC,Inactive,East,West Bengal,India,23.341137,88.64498,704094a7-55d9-4f4c-82a0-9c20c3be8626,"Bagula station para, Bagula,PS : Hanskhali, Near Dr. Ambedkar club,Nadia, 741502",,741502,FALSE,TRUE,HKL/BGL,East,Kolkata_Dankuni_P,ca2d8a0c-fa7a-47f7-9cd2-27f711128b32
IN756029A1B,Basta_Deulpara_DPP,Basta_Deulpara_DPP (Orissa),Basta,DC,Active,East,Orissa,India,21.690025,87.060715,5c98e315-94be-43aa-8300-8a0962638c91,"Wishbox Logistics, Plot No-247/1045, Baunsamukha , Basta, Balasore, Odisha, 756029 , Landmark: Gandhi Chhaka Hospital Road",,756029,FALSE,TRUE,BST/DLP,East,Kharagpur_Nimpura_I,26d65f7d-497e-48a0-99fa-407dfbb0bbc0
IND742303AAA,Domkal_BablaBon_D,Domkal_BablaBon_D (West Bengal),Domkal,DC,Inactive,East,West Bengal,India,24.11895,88.5579,62bf5f18-7b64-45a8-ae7e-04beab6868cf,"Sahajahan Ali Molla, Babla bona, PO+PS- Domkol, Near  -  Hospital more. Pin - 742303",,742303,FALSE,TRUE,CSZ/DKL,East,Kolkata_Dankuni_P,ca2d8a0c-fa7a-47f7-9cd2-27f711128b32
IND742149AAA,Murshidabad_Sirjudol_D,Murshidabad_Sirjudol_D (West Bengal),Murshidabad,DC,Inactive,East,West Bengal,India,24.183327,88.273994,0908b9b8-9930-425a-b59a-5b2ab9a87cd0," Word no 2 , Holding no 7 ,320 Sirajuddowla Road, P.O+P.S- Murshidabad Pin- 742149",,742149,FALSE,TRUE,MBB/SJD,East,Berhampore_Central_I_2,41c35dd8-422b-46e9-a051-2a8f01de6494
IN621316A1A,Viralimalai_Vedaaputi_DPP,Viralimalai_Vedaaputi_DPP (Tamil Nadu),Viralimalai,DC,Inactive,South,Tamil Nadu,India,10.605566,78.5476,5058398c-0085-496a-a3b0-d588baca23ba,"No: 148/2, Periyar Nagar, Manamettupatti road Viralimalai, Pudukkottai",,621316,FALSE,TRUE,VRL/VDP,South,Tiruchi_Navalur_H,76cda58d-8186-46dd-9969-086aa6b7cc56
IND721507AAB,Jhargram_JamdaDPP_D,Jhargram_JamdaDPP_D (West Bengal),Jhargram,DC,Inactive,East,West Bengal,India,22.44992,86.99396,5d89a3cf-3fcc-4a1e-8a1c-85701bd6d879,"C/o Suklal Saren , At & PO - Jamda , Jhargram, West Midnapur 721507 Land Mark - Soren Petrol Pump",,721507,FALSE,TRUE,JGM/JMD,East,Kharagpur_Malancha_I,de7d3d15-a2fc-4b91-885a-b67c13d111cb
INKAARCN,Bangalore_Chamarajpet_D,Bangalore_Chamarajpet_D (Karnataka),Bangalore,DC,Active,South,Karnataka,India,12.961119,77.560455,decdbccb-d400-4a8b-8565-610dd8f41836,59/1 Sirsi circle Mysore Rd Chamarajpet Bangalore 560018,9886711013,560018,FALSE,TRUE,BAN/MAR,South,Bangalore_Soukyaroad_I,8848cfb5-69f9-451c-ab6f-2d00b7d40abf
INKAAQGB,Bangalore_Arekere_D,Bangalore_Arekere_D (Karnataka),Bangalore,DC,Active,South,Karnataka,India,12.885065,77.60959,a263b7c5-34de-4524-a2a4-77512f5490db,"19th Main Rd, Indira Gandhi Housing Colony, Arekere, Bengaluru, Karnataka 560076",9538344010,560076,FALSE,TRUE,BAN/ARE,South,Bangalore_Soukyaroad_I,8848cfb5-69f9-451c-ab6f-2d00b7d40abf
INHPAMSS,Thunag_SBI_D,Thunag_SBI_D (Himachal Pradesh),Thunag,DC,Active,North,Himachal Pradesh,India,31.56006,77.17007,cafe6987-6da6-498c-96d7-c3fdf1b8b054,"Main market Thunag, Opposite SBI Thunag. PO and Tehsil Thunag, HP 175048",7018971262,175048,FALSE,TRUE,TNG/SBI,North,Mandi_Behna_I,a724f355-47b5-46de-87fb-774b8230bcfe
IND562101AAA,Chikblapur_ShntiSgr_D,Chikblapur_ShntiSgr_D (Karnataka),Chikkaballapura,DC,Inactive,South,Karnataka,India,13.424897,77.7286,1a3991e2-47db-4b3c-a6c0-443c3274c721,site srinivasmurthy.m #504 saisadana narayanashasti laout (near shanthisagar hottel) NH7. Chikkaballapura 562101,9.20E+11,562101,FALSE,FALSE,CBP/SSH,South,Bangalore_Soukyaroad_I,8848cfb5-69f9-451c-ab6f-2d00b7d40abf
IND563131AAA,Mulbagal_Sunku_D,Mulbagal_Sunku_D (Karnataka),Mulbagal,DC,Active,South,Karnataka,India,13.165877,78.39865,5e9196da-cfd4-455f-8db9-868bdbc47e19,"19/Khata number 5269/2,  sunku ashwathnaraiah layout,Narshimatheertha road, Mulbagal,Kolar,Karnataka-563131 (India)",9900664201,563131,FALSE,TRUE,BWT/SUK,South,Bangalore_Soukyaroad_I,8848cfb5-69f9-451c-ab6f-2d00b7d40abf
IND388220AAA,Umreth_Dakor_DC,Umreth_Dakor_DC (Gujarat),Umreth,DC,Inactive,West,Gujarat,India,22.704805,73.11604,c29eb17d-a4e6-4896-8fa4-ddf46015caac,"Next to Shubhlaxmi Complex, Nr.Bus tand, Vilage Umreth, Taluka.Umreth, District.Anand - 388220",,388220,FALSE,FALSE,UMH/DK,West,Vadodara_Dasranth_I,165a50f2-dccb-49d3-b399-096527a26835
IND123411A1A,Rewari_Zainabad_DPP,Rewari_Zainabad_DPP (Haryana),Rewari,DC,Inactive,North,Haryana,India,28.30056,76.38253,e47015e4-c55c-4e10-9b0f-da87048194b8,"Khola enterprises , main busstand dahina,123411",,123411,FALSE,TRUE,RE/ZNB,North,Gurgaon_Bilaspur_P,828acd1c-fa6c-43fc-94da-cc33bac208b2
IND829111AAA,Gumia_Central_DPP_1,Gumia_Central_DPP_1 (Jharkhand),Gumia,DC,Inactive,East,Jharkhand,India,23.79,85.83,e76836e9-a46f-4582-ac13-b1fb36c4ae02,"Delhivery Pvt. Ltd, post- Swang, 1B market, Near Gumia Collage, Gumia Road, Gumia, Dist- Bokaro, Jharkhand 829111",,829111,FALSE,FALSE,GMI/CNT,East,Ranchi_Hub,a5aca067-622d-4904-9c68-224bff1c59ed
IND452001AAC,Jalgaon_DC,Jalgaon_DC (Maharashtra),Jalgaon,DC,Active,West,Maharashtra,India,20.995243,75.58902,7ef9343b-55bc-483a-9a37-188715ee52e3,"Shop No 64, New Cattel market, Jalgaon - 425001",8600656628,425001,FALSE,TRUE,JLG/JLG,West,Dhule_MIDC_I,a44f0a3f-ce40-4032-9750-85077642f099
IN752030A1B,Balugaon_Oldasianhighwy_D,Balugaon_Oldasianhighwy_D (Orissa),Balugaon,DC,Active,East,Orissa,India,19.756468,85.2113,664774a3-b81c-406a-a5b3-4097865b70e5,"Saralapadar chawk, Near up School,BalugaonPin- 752030",9262667772,752030,FALSE,TRUE,BLG/AHW,East,Berhampur_Khajuria_I,f25f1815-b666-4984-9f5e-c2efdb49fd7d
INMPAAIV,Garoth_Abadi_DPP,Garoth_Abadi_DPP (Madhya Pradesh),Garoth,DC,Inactive,West,Madhya Pradesh,India,24.326147,75.6534,f82867d3-6623-45bb-ba65-73de374ce4ce,178 nai abadi garoth teh- garoth dist-mandsaur,,458880,FALSE,FALSE,GOH/ABD,West,Kota_Trnsprtngr_I,f0de160e-a8c2-4228-a7ab-15b8c80a760a
INUPAAYC,Shankargarh_PoliceStn_DPP,Shankargarh_PoliceStn_DPP (Uttar Pradesh),Shankargarh,DC,Inactive,North,Uttar Pradesh,India,25.183004,81.62533,ec2d949a-af4a-44fe-8ed5-84c10df07c60,Town area word no. 05 shishak nagar police station road pin code 212108 teh bara dist prayagraj ( uttarpradesh ),,212108,FALSE,TRUE,SHA/PSN,North,Allahabad_Central_H_1,732cc135-7e2b-4299-a690-d3b45e0c17e6
INMHAPBH,AhmedNagar_ShilaVihar_D,AhmedNagar_ShilaVihar_D (Maharashtra),Ahmednagar,DC,Active,West,Maharashtra,India,19.12334,74.74873,4d768a67-d95a-4297-9b97-d7a37646f2f0,PL No 6 S No 37/3 Shila Vihar Ahmednagar Maharashtra 414001,7276131071,414001,FALSE,TRUE,AHM/SHI,West,Ahmednagar_Kedgaon_I,fdc6ef33-854c-4522-bd81-322aeb2925f4
INMHABDA,Pathardi_AasaraNgr_DPP,Pathardi_AasaraNgr_DPP (Maharashtra),Pathardi,DC,Active,West,Maharashtra,India,19.169653,75.16971,da68ac7c-e0d4-49b5-bf77-01957e12c736,"Aasara Nagar,   Near Bhapkar Hospital, Manikdaundi Road, Tal:-Pathardi,414102",,414102,FALSE,TRUE,PTD/ASA,West,Ahmednagar_Kedgaon_I,fdc6ef33-854c-4522-bd81-322aeb2925f4
INMHABAC,Shevgaon_MiriRd_DPP,Shevgaon_MiriRd_DPP (Maharashtra),Shevgaon,DC,Active,West,Maharashtra,India,19.342808,75.218445,cb165276-1dcd-4af5-8c7c-de864a0f98d4,"Shop No 107, Miri Road, At Post Shevgaon, Tq Shevgaon, Dist Ahmednagar 414502",,414502,FALSE,TRUE,SHV/MRD,West,Ahmednagar_Kedgaon_I,fdc6ef33-854c-4522-bd81-322aeb2925f4
INMHAOSY,Pachora_PoliceStation_D,Pachora_PoliceStation_D (Maharashtra),Pachora,DC,Inactive,West,Maharashtra,India,20.667,75.3487,a1159d72-0820-4b9b-8ba9-2540230a5f2c,"Plot No 17, Mangalam Hights Bajula Aadarsh Nagar Pachora Jalgaon Pachora Maharashtra -424201",8600656628,424201,FALSE,FALSE,PAC/PoL,West,Dhule_MIDC_I,a44f0a3f-ce40-4032-9750-85077642f099
IN176206A1A,ShahpurHP_Dramman_D,ShahpurHP_Dramman_D (Himachal Pradesh),Shahpur-HP,DC,Inactive,North,Himachal Pradesh,India,32.23204,76.17249,b417dfc8-7be3-4e9e-9ef7-f0cdc09bf3e0,"Village Garola, PO Dramman, Sihunta Road, Chamba, HP",,176206,FALSE,FALSE,SSHDRM,North,BilaspurHP_Kothi_I,dc79c3ab-80ee-4856-95eb-848b80102297
IN230132A1A,LalganjAjhara_Shitalmau_D,LalganjAjhara_Shitalmau_D (Uttar Pradesh),Lalganj Ajhara,DC,Inactive,North,Uttar Pradesh,India,25.931204,81.71387,b79250b5-c952-4e16-a1ba-59d0f403ec0b,"Sagiyapur, Lalganj, UP 230132",9415494000,230132,FALSE,TRUE,JGJ/LAL,North,Allahabad_Central_H_1,732cc135-7e2b-4299-a690-d3b45e0c17e6
IND414603AAB,Newasa_Khurd_D,Newasa_Khurd_D (Maharashtra),Newasa,DC,Active,West,Maharashtra,India,19.533546,74.94308,0fb70f46-ee0f-4bc8-b2a6-bd9acc95ee91,"House No 167/1/A, Pavan Ganpati Parisar, Nevasa Khurd, Maharashtra 414603",8805030050,414603,FALSE,TRUE,NWS/KHD,West,Ahmednagar_Kedgaon_I,fdc6ef33-854c-4522-bd81-322aeb2925f4
INRJAOWU,RamganjMandi_ShivTemple_D,RamganjMandi_ShivTemple_D (Rajasthan),Ramganj Mandi,DC,Inactive,North,Rajasthan,India,24.64125,75.957436,efc2dccd-8498-4ec5-850b-c76c3fbf52f7,"Adarsh Nagar Plot No 96 Ramganj Mandi, Rajasthan 326519",9828959469,326519,FALSE,FALSE,RAM/SHI,North,Kota_Trnsprtngr_I,f0de160e-a8c2-4228-a7ab-15b8c80a760a
IN458775A1A,Bhanpura_Thagi_D,Bhanpura_Thagi_D (Madhya Pradesh),Bhanpura,DC,Inactive,West,Madhya Pradesh,India,24.512638,75.75806,1f2fb072-3dcb-480b-8bf8-c247ec4d11ba,"Infront of Police station, Jhalawar road, Bhanpura Madhya Pradesh 458775",,458775,FALSE,FALSE,BHM/THG,West,Kota_Trnsprtngr_I,f0de160e-a8c2-4228-a7ab-15b8c80a760a
IND791120AAA,Ziro_Hapoli_D,Ziro_Hapoli_D (Arunachal Pradesh),Ziro,DC,Active,East,Arunachal Pradesh,India,27.54198,93.812515,a313f050-b339-401e-a369-8a3f9aa09939,"DP Complex, RCC/26, D-1/22 Hapoli, Ziro, Arunachal Pradesh 791120",9101605597,791120,FALSE,TRUE,ZER/HPL,East,Itanagar_Banderdewa_I,2e9721d4-4457-49d3-b6f2-136710f5d42a
IND781335AAB,Nalbari_Bhgtpura_K,Nalbari_Bhgtpura_K (Assam),Nalbari,KIOSK,Inactive,East,Assam,India,26.43124,91.43542,f20a58c1-bfb5-413f-b06b-f5e71dcac0da,"C/o Indar Chand Mahabir Prasad, Bhagatpara Road, Nalbari-781335",,781335,FALSE,TRUE,NLV/BPK,East,Nalbari_Bhgtpura_D,510baa34-9735-460f-88ee-053d10ae55e3
IN176048A1C,Jahu_Naltu_D,Jahu_Naltu_D (Himachal Pradesh),Jahu,DC,Active,North,Himachal Pradesh,India,31.607216,76.703125,e6d38fa3-841d-4625-9f25-aba9267c9175,"Vill , Sulgwan PO, Jahu, Una - jahu Highway Road, Near Sulgwan Chowk - 176048",7018333783,176048,FALSE,TRUE,JAH/NAL,North,BilaspurHP_Kothi_I,dc79c3ab-80ee-4856-95eb-848b80102297
INHPAOPX,Hamirpur_SalouniDPP_D,Hamirpur_SalouniDPP_D (Himachal Pradesh),Hamirpur,DC,Active,North,Himachal Pradesh,India,31.58079,76.51392,fbb2e13c-3fdc-4eb8-9de8-842d7f35447c,"C/O Sharvan Kumar, S/O- Late Sunka Ram, Village - Khangalta, PO- Salouni, Tehsil- Barsar, District - Hamirpur. (HP) 174311",,174311,FALSE,TRUE,HAM/SAL,North,BilaspurHP_Kothi_I,dc79c3ab-80ee-4856-95eb-848b80102297
INHPASPR,Hamirpur_PratapNagar_D,Hamirpur_PratapNagar_D (Himachal Pradesh),Hamirpur,DC,Inactive,North,Himachal Pradesh,India,31.673662,76.53364,0e844e4f-8cbf-4ed7-b6b6-a8ee959e60ad,ward no.11 dosarka near PNB Bank 177001,,177001,FALSE,FALSE,HAM/PPN,North,BilaspurHP_Kothi_I,dc79c3ab-80ee-4856-95eb-848b80102297
INRJASOE,Jaipur_OLAElectricFC1_L,Jaipur_OLAElectricFC1_L (Rajasthan),Jaipur,"FC,SC",OnBoarding,North,Rajasthan,India,26.820496,75.555824,48f1976f-34f2-4e3a-a378-a49a2f5c3051,"P.NO. I-0-1 Krishna Kunj DAHMIKALAN BAGRUKALAN AJMER ROAD JAIPUR, 303007",7062800000,303007,FALSE,FALSE,JAI/OLA,North,Jaipur_BagruPhase2_H,990d5533-9765-484e-96a3-059ce44ed475
IN425109A1D,Erandol_Kashingr_D,Erandol_Kashingr_D (Maharashtra),Jalgaon,DC,Active,West,Maharashtra,India,20.92697,75.32328,4c46fbf5-386b-4af7-930e-078b43401e72,"Shop 7 & 8 Gt.No 1024, Plot No.19, Vanai Nagar, Old Dharangaon Road, Erandol pin code 425109",9923444281,425109,FALSE,TRUE,ERA/KSH,West,Dhule_MIDC_I,a44f0a3f-ce40-4032-9750-85077642f099
IN212655A1B,Khaga_Aydhmndr_D,Khaga_Aydhmndr_D (Uttar Pradesh),Khaga,DC,Inactive,North,Uttar Pradesh,India,25.776094,81.0985,e11ce9a7-3200-4ba5-9163-4f2cb2c6e1f8,NEW BAZAAR NAGAR PANCHAYAT KHAGA FATEHPUR-212655,,212655,FALSE,TRUE,KGA/ADH,North,Allahabad_Central_H_1,732cc135-7e2b-4299-a690-d3b45e0c17e6
IND303008AAB,Dudu_NrainaRD_D,Dudu_NrainaRD_D (Rajasthan),Dudu,DC,Inactive,North,Rajasthan,India,26.679405,75.23899,c7277465-cd52-45f7-b5a7-577c6e539bed,"Bohra Bhawan, Opp Rajkiya Samudaik Kendra, Naraina Road, Dudu, RJ",,303008,FALSE,TRUE,DUD/NRN,North,Jaipur_Bagru_I,a39d8f94-ea55-4200-a7da-1553a4c12ecc
IN413701A1A,Shrigonda_Wdalird_D,Shrigonda_Wdalird_D (Maharashtra),Shrigonda,DC,Active,West,Maharashtra,India,18.612408,74.69743,54eabc22-96c0-47ae-a65d-8e0290d2c689,"Daund Jamkhed Road Near By Bairavnath Temple Roinakhights Shrigonda Tal- Shrigonda, Dist- Ahmadnagar Pincode 413701",9260111158,413701,FALSE,TRUE,SGD/WDL,West,Ahmednagar_Kedgaon_I,fdc6ef33-854c-4522-bd81-322aeb2925f4
INARAQMF,Yazali_Yachuli_D,Yazali_Yachuli_D (Arunachal Pradesh),Yazali,DC,Active,East,Arunachal Pradesh,India,27.46439,93.7692,32d6bb23-7174-4932-8a1c-bde5002d4238,"Main MarketYachuli, Near Primary Health care centre, 791119",,791119,FALSE,TRUE,YAZ/YAC,East,Itanagar_Banderdewa_I,2e9721d4-4457-49d3-b6f2-136710f5d42a
IN211011A1E,Allahabad_Bajha_D,Allahabad_Bajha_D (Uttar Pradesh),Allahabad,DC,Active,North,Uttar Pradesh,India,25.45238,81.768715,541988f4-95ba-4c97-83ac-216f2cd12193,"House No 303, Transport Nagar, Prayagraj, 211011",8299127050,211011,FALSE,TRUE,ALH/BAJ,North,Allahabad_Rasulabad_H,e12baae7-109f-4f7f-811f-f59fb0e91284
INRJAMVW,Nainwa_GovtHospital_DPP,Nainwa_GovtHospital_DPP (Rajasthan),Nainwa,DC,Inactive,North,Rajasthan,India,25.777132,75.86416,839e42fd-0048-4933-91ab-5f90db60b6f9,"Infront of Govt Hospital Nagar Road Nainwa, Bundi, Rajasthan - 323801",,323801,FALSE,FALSE,NNW/GVT,North,Kota_Trnsprtngr_I,f0de160e-a8c2-4228-a7ab-15b8c80a760a
INUPAPJX,Kasganj_GandhiKunj_D,Kasganj_GandhiKunj_D (Uttar Pradesh),Kasganj,DC,Active,North,Uttar Pradesh,India,27.794,78.633,2c9aaea5-3c1c-4440-a2b6-56bed7d35ac1,"Gandhi Kunj,Bankner Nadrai, Gate Near Railway over Bridge Kasganj -UP (207123)",9149362885,207123,FALSE,TRUE,KAS/GAN,North,Aligarh_BemaNagar_I,74727c05-dd21-43f8-add5-085fc9a218ed
IN243638A1B,Sahaswan_Mainmarket_D,Sahaswan_Mainmarket_D (Uttar Pradesh),Sahaswan,DC,Active,North,Uttar Pradesh,India,28.072027,78.749725,ec763bc5-90b6-451b-842c-dbf18060e138,"Main Market,Seheswan,near by Tehseel",8979737475,243638,FALSE,TRUE,SHS/MNM,North,Aligarh_BemaNagar_I,74727c05-dd21-43f8-add5-085fc9a218ed
IND388620AAA,Khambhat_Kansari_DC,Khambhat_Kansari_DC (Gujarat),Khambhat,DC,Inactive,West,Gujarat,India,22.33362,72.64837,c52db71b-d3b7-40c3-9eba-9509f4828931,"Shop No-2, Srvay No 1562 to 1567, At.Kansari, Tal. Khambhat, Dis.Anand - 388620",,388620,FALSE,TRUE,CBY/KDC,West,Anand_Vaghasi_IP,8af39f11-4214-4306-90c0-2f8132675637
IND761110AAC,Asika_Central_DPP_2,Asika_Central_DPP_2 (Orissa),Asika,DC,Inactive,East,Orissa,India,19.60177,84.66753,88d68d71-498d-4097-9495-292aba8f78ca,"Aska,Ganjam,Odisha,Pin-761110,Land mark-Near Tvs Show Room",,761110,FALSE,FALSE,BAM/CRT,East,Berhampur_Khajuria_I,f25f1815-b666-4984-9f5e-c2efdb49fd7d
IND518543AAB,Allagadda_PSRAptmnt_D,Allagadda_PSRAptmnt_D (Andhra Pradesh),Allagadda,DC,Inactive,South,Andhra Pradesh,India,15.135613,78.49939,1c05046e-8f03-485f-ba5b-2c3e84ea1994,"#7-7-1/19,PSR Apartment,Koilakuntla road,Allagadda,Andhra Pradesh-518543",,518543,FALSE,FALSE,ALG/PSR,South,Anantapur_Rudrampeta_I,afc4e4e5-f3d9-4000-b82f-cbbb58a1803d
IND176061AAA,Palampur_Cnsrvila_D,Palampur_Cnsrvila_D (Himachal Pradesh),Palampur,DC,Inactive,North,Himachal Pradesh,India,32.10039,76.53344,0cfca1a5-49ab-4963-9df2-dee147c8cec8,"HR Noor , Coniser villa opp income tax office  near bus stand Palampur",,176061,FALSE,TRUE,PLMX/CNS,North,BilaspurHP_Kothi_I,dc79c3ab-80ee-4856-95eb-848b80102297
INUPAQQK,Hathras_Sasni_L,Hathras_Sasni_L (Uttar Pradesh),Hathras,SC,Deboarding,North,Uttar Pradesh,India,27.702679,78.08098,f3bf91c0-7a53-4ed0-8f62-6c257a44352d,Sabagagate BurgKua Hathras-204101,,204101,FALSE,FALSE,HTRF,North,Aligarh_BemaNagar_I,74727c05-dd21-43f8-add5-085fc9a218ed
IN761010A1A,Chikiti_Bhlasingi_D,Chikiti_Bhlasingi_D (Orissa),Chikiti,DC,Active,East,Orissa,India,19.201405,84.5972,53e3da18-eea8-4296-91db-2ef821e055bf,"Bramha Naar-1 Lane, Chikiti Pentho, Chikiti Orissa Pin- 761010",7978071962,761010,FALSE,TRUE,CKT/BSG,East,Berhampur_Khajuria_I,f25f1815-b666-4984-9f5e-c2efdb49fd7d
IND229206AAB,Lalganj_AdrshNGR_D,Lalganj_AdrshNGR_D (Uttar Pradesh),Lalganj,DC,Inactive,North,Uttar Pradesh,India,26.177246,80.96105,e41179b6-18b4-45a1-b646-0b31d93fff31,"300 Adarsh Nagar, Govindpur, Lalganj, Raebareli, UP 229206",,229206,FALSE,FALSE,LLG/ADR,North,Allahabad_Central_H_1,732cc135-7e2b-4299-a690-d3b45e0c17e6
INRJAARN,RamganjMandi_MarutiNgr_D,RamganjMandi_MarutiNgr_D (Rajasthan),Ramganj Mandi,DC,Inactive,North,Rajasthan,India,24.636425,75.93375,896b991a-7bc3-441b-bd8f-2dfeb369b7d5,"Near HP Petrol Pump Maruti Nagar Ramganj Mandi , RJ 326519",,326519,FALSE,TRUE,RMG/MRT,North,Kota_Trnsprtngr_I,f0de160e-a8c2-4228-a7ab-15b8c80a760a
IND845305AAA,Raxaul_KairiyaT_D,Raxaul_KairiyaT_D (Bihar),Raxaul,DC,Inactive,East,Bihar,India,26.97336,84.85413,94d09cf8-256c-4a96-98d3-b4783fdd1cdf,"H No-179, Kairiya Tola, Raxaul, East Champaran Bihar-845305(Near Bus Stand)",,845305,FALSE,FALSE,RXL/KYA,East,Motihari_Bariyarpur_I,c824da8b-52c0-49b9-98b8-ef287017cd29
IND416502AAA,Gadhinglj_Azadrd_D,Gadhinglj_Azadrd_D (Maharashtra),Gadhinglaj,DC,Inactive,West,Maharashtra,India,16.22562,74.34828,a7343de6-6a2e-414d-8f8e-7cae297a21b4,"Shop no. 1, Bhagyoday Niwas, M.No. 1341/2 , Azad Road, Gadhinglaj 416502",7057807270,416502,FALSE,TRUE,KOP/GDH,West,Belgaum_GandhiNgr_I,cd016151-f102-4da7-b69f-84d52427894e
INKAANCX,Salahalli_BelagaviRd_DPP,Salahalli_BelagaviRd_DPP (Karnataka),Salahalli,DC,Inactive,South,Karnataka,India,16.0713,75.231674,fb336071-a8ed-4126-af23-029cc44c91a1,"Mrutyinjay chichagandi BSNL office apposite belagavi road Salahalli 591130	",,591130,FALSE,FALSE,SHL/BGR,South,Belgaum_GandhiNgr_I,cd016151-f102-4da7-b69f-84d52427894e
IND845418AAB,Dhaka_PchpkrRD_D,Dhaka_PchpkrRD_D (Bihar),Dhaka,DC,Inactive,East,Bihar,India,26.673477,85.17083,c22bfc25-bc6b-4c4e-8db2-1fdf4d8ab258,"Pachpakri Road, Near Dr Sagir Ahmad Clinic, Dhaka, Distt East Champaran, Bihar 845418",,845418,FALSE,FALSE,DHK/PCH,East,Motihari_Bariyarpur_I,c824da8b-52c0-49b9-98b8-ef287017cd29
INGJAAKN,Vapi_GIDC_D,Vapi_GIDC_D (Gujarat),Vapi,DC,Inactive,West,Gujarat,India,20.355,72.90801,2699285a-7802-4826-aa96-f1af73d50cde,"Plot No.129 , Survey No.846 , Vibrant Business Park , GIDC Vapi , NH-08 , Vapi -396195. Gujrat",9854231302,396195,FALSE,TRUE,VPI/GDD,West,Vapi_GIDC_H,db8f6928-2878-4930-800a-b69ad5e88d5e
IN230204A1C,Kunda_Faredupur_D,Kunda_Faredupur_D (Uttar Pradesh),Kunda,DC,Inactive,North,Uttar Pradesh,India,25.71833,81.5196,f3028939-3f22-46f3-94da-43066f3890f1,"409, Farendupur, Kunda, Pratapgarh, UP 230204",,230204,FALSE,TRUE,KND/FRD,North,Allahabad_Central_H_1,732cc135-7e2b-4299-a690-d3b45e0c17e6
IND413801AAB,Daund_Central_DPP_2,Daund_Central_DPP_2 (Maharashtra),Daund,DC,Inactive,West,Maharashtra,India,18.436052,74.56682,8d463fdc-fe9e-4bf7-954b-4c25e8a851f6,"549 m 
Shop no. 1, Boravkenagar, Daund-Baramati Road, Taluka- Daund, Pune- 413801",,413801,FALSE,TRUE,DD/CNT,West,Pune_PC,305e78ba-7e63-423b-bd75-3b5e12666290
IN766107A1A,Khariar_Meheruclny_D,Khariar_Meheruclny_D (Orissa),Khariar,DC,Inactive,East,Orissa,India,20.302307,82.75612,3297a1ec-40c6-49b8-b54c-276ee2f553b2,"Meheru colony, Behind of New bus stand, Kharial,766107",8249679976,766107,FALSE,FALSE,KHR/MHR,East,Raipur_Sarona_H,f062798f-a263-4030-9ae3-c00c42c5b440
INORALZC,Raikia_Raikia_D,Raikia_Raikia_D (Orissa),Raikia,DC,Active,East,Orissa,India,20.054277,84.23979,4e1839a0-3543-4be1-b559-3931b63001b3,"Raikia, Odisha 762101",9437916281,762101,FALSE,TRUE,RKA/RKA,East,Berhampur_Khajuria_I,f25f1815-b666-4984-9f5e-c2efdb49fd7d
INMHAMBM,Chalisgaon_KharjaiNaka_DPP,Chalisgaon_KharjaiNaka_DPP (Maharashtra),Chalisgaon,DC,Inactive,West,Maharashtra,India,20.471226,75.020294,65cdaa05-d908-471b-ba71-9c963ba53f17,"ROMEZA ENTERPRISES,SHOP NO 13 ,NEAR Arihant Lahoo Bhandaar , KHARJAI NAKA, CHAISGAON - 424101",,424101,FALSE,FALSE,CGN/KJN,West,Dhule_MIDC_I,a44f0a3f-ce40-4032-9750-85077642f099
IND822116AAA,Japla_MRoadDPP_D,Japla_MRoadDPP_D (Jharkhand),Japla,DC,Inactive,East,Jharkhand,India,24.5328,83.9982,9019ae7d-29fa-4e20-9b87-65f2c38a5be2,Main road japla palamau jharkhand.,,822116,FALSE,TRUE,JPL/MRD,East,Ranchi_Hub,a5aca067-622d-4904-9c68-224bff1c59ed
IND211011AAA,Allahabad_Central_D_5,Allahabad_Central_D_5 (Uttar Pradesh),Allahabad,DC,Inactive,North,Uttar Pradesh,India,25.452387,81.76878,eefb1e6f-e40a-4224-99c7-11e845cb9fde,"212, Transport Nagar, Gayasddinpur, Uparhar, Dhoomanganj, Allahabad, UP 211011",,211011,FALSE,FALSE,IXD/CRL,North,Allahabad_Central_H_1,732cc135-7e2b-4299-a690-d3b45e0c17e6
INARANZU,Banderdewa_Papunalah_D,Banderdewa_Papunalah_D (Arunachal Pradesh),Itanagar,DC,OnBoarding,East,Arunachal Pradesh,India,27.118668,93.801865,f457f426-96cb-4da3-8f0a-1c3b577a1531,"Near NH415, Highway, Dobum , Banderdewa, Arunachal pradesh, 791123",7628868852,791123,FALSE,TRUE,BAN/PAu,East,Itanagar_Banderdewa_I,2e9721d4-4457-49d3-b6f2-136710f5d42a
INKAAAVT,Ramdurg_Busstnd_DPP,Ramdurg_Busstnd_DPP (Karnataka),Ramdurg,DC,Active,South,Karnataka,India,15.952226,75.29706,4fbe5f9a-ae82-440a-9da2-8f37d047953b,MALLIKARJUN B RONDA BEHIND NEW BUS STAND RAMADURGA KARNATAKA - 591123,,591123,FALSE,TRUE,RAM/BST,South,Belgaum_GandhiNgr_I,cd016151-f102-4da7-b69f-84d52427894e
IND396195AAB,Vapi,Vapi (Gujarat),Vapi,DC,Inactive,West,Gujarat,India,20.36148,72.92668,67069b6e-0eac-4e48-949b-6a80903c8d84,"Plot No -129/3 , Mahavir Industrial Estate , Silvassa Road , GIDC , Vapi -396191",,396191,FALSE,FALSE,VAP/CHA,West,Vapi_GIDC_H,db8f6928-2878-4930-800a-b69ad5e88d5e
INBRAOZX,Kuchaikote_BandhanBank_D,Kuchaikote_BandhanBank_D (Bihar),Kuchaikote,DC,Inactive,East,Bihar,India,26.560062,84.330765,609ae319-2196-4952-bef4-74305636db0f,"KUCHAIKOTE MOURYA MARKET,P.O+POLICE STATION-KUCHAIKOTE,DISTRICT-GOPALGANJ,PIN CODE-841501",7210199355,841501,FALSE,FALSE,KUC/BAN,East,Motihari_Bariyarpur_I,c824da8b-52c0-49b9-98b8-ef287017cd29
INORAMQT,Bhutasarasingi_MainRd_DPP,Bhutasarasingi_MainRd_DPP (Orissa),Bhutasarasingi,DC,Active,East,Orissa,India,19.536335,84.86224,6d4f6ca0-7f54-491f-b876-cad7e54f6494,"At/Po- Bhutasarasingi, Via- Purusthotampur, pin code- 761019",,761019,FALSE,TRUE,BTG/MNO,East,Berhampur_Khajuria_I,f25f1815-b666-4984-9f5e-c2efdb49fd7d
INORALMR,Badagada_City_DPP,Badagada_City_DPP (Orissa),Badagada,DC,Inactive,East,Orissa,India,19.642256,84.39717,c3799d73-c27b-416d-aafa-eafd19bf5902,"At/po- Badagada,Ps- Badagada,via- Soroda,Dist- Ganjam,pin-761109",,761108,FALSE,TRUE,BDA/CTY,East,Berhampur_Khajuria_I,f25f1815-b666-4984-9f5e-c2efdb49fd7d
INRJAROK,Jaipur_Sitapura_L,Jaipur_Sitapura_L (Rajasthan),Jaipur,SC,Active,North,Rajasthan,India,26.78824,75.82773,3a560bc7-be09-4c16-afca-d9344ab1fc52,"IRS3 INFOTECH, IT-24-25, EPIP , RIICO Industrial Area, Sitapura, Jaipur , Rajasthan- 302022",,302022,FALSE,TRUE,JAI/SIT,North,Jaipur_BagruPhase2_H,990d5533-9765-484e-96a3-059ce44ed475
IND212402AAA,Phulpur_Shekhpur_D,Phulpur_Shekhpur_D (Uttar Pradesh),Phulpur,DC,Inactive,North,Uttar Pradesh,India,25.529137,82.06363,eda91cd6-d780-46b0-8bcd-430de73c0c95,"Shekhpur Uttari, Phulpur, Allahabad, UP 212402",,212402,FALSE,FALSE,PHL/SHK,North,Allahabad_Central_H_1,732cc135-7e2b-4299-a690-d3b45e0c17e6
INMHABDV,Chopda_CollegeRd_DPP,Chopda_CollegeRd_DPP (Maharashtra),Chopda,DC,Active,West,Maharashtra,India,21.243563,75.297874,94a9d730-4a51-4a18-8e3d-1b1661587c52,"College Road near Narayanwadi Sahakar nagar,Post-Chopda,Dist-Jalgaon,Pin-425107",,425107,FALSE,TRUE,CHP/CLG,West,Dhule_MIDC_I,a44f0a3f-ce40-4032-9750-85077642f099
IN230204A1D,Kunda_KaretiRd_D,Kunda_KaretiRd_D (Uttar Pradesh),Kunda,DC,Active,North,Uttar Pradesh,India,25.720526,81.52374,88298fe6-d656-48a0-91b8-754b3cc79bf2,"Attaranagar Ward Bihar Kunda, Pratapgarh, UP 230204",7080379283,230204,FALSE,TRUE,KUN/KARE,North,Allahabad_Rasulabad_H,e12baae7-109f-4f7f-811f-f59fb0e91284
IND737126AAB,Namchi_ChungRd_K,Namchi_ChungRd_K (Sikkim),Namchi,KIOSK,Inactive,East,Sikkim,India,27.162243,88.35756,4d101ee2-77c7-4fc0-944b-b6a4bbbcaf1d,"Dr.Y Bhutia ,Tharpu (Below Old Primary School ) Near Kamakhya Petrol Pump Namchi South Sikkim pin # 737121",7318636914,737126,FALSE,TRUE,NJP/CRK,East,Namchi_ChungRd_D,603f51e8-0389-45e1-81c1-2219d73bcc7f
IN425418A1A,Navapur_Tintemba_D,Navapur_Tintemba_D (Maharashtra),Navapur,DC,Inactive,West,Maharashtra,India,21.162945,73.802055,c359c6c2-1b91-4142-b15a-34d6a27de549,Plot No. 81/82 In Front of Swastik Hotel Near National Beckery NH6 Navapur 425418,,425418,FALSE,TRUE,NVP/TNT,West,Dhule_MIDCAvdn_I,a55fb505-9d60-456c-8b74-06951e5e5ef9
IND431107AAB,Paithan_SantaNGR_D,Paithan_SantaNGR_D (Maharashtra),Paithan,DC,Active,West,Maharashtra,India,19.47732,75.38506,03e89cf7-c265-444c-9d2a-802c567c9996,"33 Gali Santanagar, Guest House Road, Paithan, MH 431107",8805536567,431107,FALSE,TRUE,PAT/SNT,West,Ahmednagar_Kedgaon_I,fdc6ef33-854c-4522-bd81-322aeb2925f4
INKAAOZY,Belgaum_MahanteshNagar_D,Belgaum_MahanteshNagar_D (Karnataka),Belgaum,DC,Active,South,Karnataka,India,15.87477,74.52928,2de9bdf5-3083-4817-9898-aea82377381a,LIG 32 Mahantesh Nagar Near KHB Office Belagavi -590016,7815942737,590016,FALSE,TRUE,BEL/MAH,South,Belgaum_GandhiNgr_I,cd016151-f102-4da7-b69f-84d52427894e
INHPAQBT,BilaspurHP_Tihri_D,BilaspurHP_Tihri_D (Himachal Pradesh),Bilaspur-HP,DC,OnBoarding,North,Himachal Pradesh,India,31.356388,76.74506,a70d64d3-f7da-4cda-8247-f77cf215223c,"94/39, Village Kothi PO Chandpur, tehsil sadar, Chandpur, Bilaspur, HP 174004",,174004,FALSE,TRUE,BIL/HRI,North,BilaspurHP_Kothi_I,dc79c3ab-80ee-4856-95eb-848b80102297
IN845411A1A,Govindpur_Areraj_D,Govindpur_Areraj_D (Bihar),Motihari,DC,Active,East,Bihar,India,26.547958,84.65754,2495588c-b67a-4d64-8942-2e77cfb6f57e,"Sharmatola Dist.- East Champaran, Areraj; Pincode  845411 (Bihar)",8516051853,845411,FALSE,TRUE,GVP/AER,East,Motihari_Bariyarpur_I,c824da8b-52c0-49b9-98b8-ef287017cd29
IND757032AAA,Bangriposi_Vailadia_D,Bangriposi_Vailadia_D (Orissa),Bangriposi,DC,Inactive,East,Orissa,India,22.15402,86.54192,dd0f5005-4714-4e79-b082-3ae7a9e6cfe8,"At/po: Vailadia, Bangiriposi, Mayurbhanj, PS - Bangiriposi, Pin:757032",,757032,FALSE,TRUE,BGY/VLI,East,Ranchi_Hub,a5aca067-622d-4904-9c68-224bff1c59ed
INBRAANH,Jiwdhara_MainRd_DPP,Jiwdhara_MainRd_DPP (Bihar),Jiwdhara,DC,Inactive,East,Bihar,India,26.57856,84.90873,40793e87-e809-468e-9850-cf24a8de1e87,"Khata No - 112, Kheshra No-24, MD iliyash House, Vill - Jiwdhara, P/o-Jiwdhara, P/s-Piprakothi, District - East Champaran, State- Bihar, Pin Code- 845429",,845429,FALSE,FALSE,JWD/MRD,East,Motihari_Bariyarpur_I,c824da8b-52c0-49b9-98b8-ef287017cd29
INMHARTT,Jalgaon_Midc_L,Jalgaon_Midc_L (Maharashtra),Jalgaon,SC,OnBoarding,West,Maharashtra,India,20.977608,75.58892,320d728c-55b4-427a-9392-7276f525cb91,"M/s Disha Industries Y-3 MIDC area, Jalgaon(M Corp), Maharashtra-425003",,425003,FALSE,TRUE,JAL/MID,West,Dhule_MIDC_I,a44f0a3f-ce40-4032-9750-85077642f099
IND424101A1B,Chalisgaon_KannadRD_DPP,Chalisgaon_KannadRD_DPP (Maharashtra),Chalisgaon,DC,Inactive,West,Maharashtra,India,20.458042,75.0163,b1618885-e5f7-4a87-8a5c-9e87895d4fa6,AJABE COMPLEX CHALISGAON KANNAD RD CHALISGAON 424101,,424101,FALSE,FALSE,CSN/KNN,West,Dhule_MIDCAvdn_I,a55fb505-9d60-456c-8b74-06951e5e5ef9
INHRAAHL,Rewari_DadriRd_DPP,Rewari_DadriRd_DPP (Haryana),Rewari,DC,Inactive,North,Haryana,India,28.33645,76.30564,57eaf843-cd82-491b-87d6-06080bc04aae,"Shop no 2 Dadri Road ,Oopar. Essar Petrol Pump,Kanina(Mahendra grah) 123027",,123027,FALSE,TRUE,RWR/DDR,North,Gurgaon_Bilaspur_P,828acd1c-fa6c-43fc-94da-cc33bac208b2
INBRAANA,Gopalganj_HarsanHosp_D,Gopalganj_HarsanHosp_D (Bihar),Gopalganj,DC,Active,East,Bihar,India,26.473377,84.43036,3d572eee-6011-4b0c-923a-1c86cbeba691,"Harsan Hospital Rd, Gopalganj, Bihar 841428",9102130222,841428,FALSE,TRUE,GPL/HSN,East,Motihari_Bariyarpur_I,c824da8b-52c0-49b9-98b8-ef287017cd29
INBRAALD,Narkatiaganj_ShivganjRd_DPP,Narkatiaganj_ShivganjRd_DPP (Bihar),Narkatiaganj,DC,Inactive,East,Bihar,India,27.111929,84.46903,990d81f2-43f9-4ed2-a281-e06c77779f8a,"Nagendra Tiwari Chauk, Shivganj Road, Ward no.-08, Narkatiaganj, West Champaran, Pin code:- 845455 (Bihar)",,845455,FALSE,FALSE,NRK/SHV,East,Motihari_Bariyarpur_I,c824da8b-52c0-49b9-98b8-ef287017cd29
IND425109AAB,Erandol_Central_DPP_2,Erandol_Central_DPP_2 (Maharashtra),Erandol,DC,Inactive,West,Maharashtra,India,20.925388,75.32833,1a8df889-e3f5-4113-aca2-01cb8fa95436,"NEOSOFT COMPUTERS, JAHANGIR PURA, NEAR GANPATI MANDIR, ERANDOL",,425109,FALSE,FALSE,ERN/CNT,West,Dhule_MIDCAvdn_I,a55fb505-9d60-456c-8b74-06951e5e5ef9
IND390018AAB,Vadodara_Karelibaug_DC,Vadodara_Karelibaug_DC (Gujarat),Vadodara,DC,Inactive,West,Gujarat,India,22.33344,73.20508,3f8ddf75-2022-425a-adf0-0a7252aba9b7,"1, Ajita Nagar, Beside BRG heights, Near Amit Nagar Circle, Sama-savli Road, Karelibaug, Vadodara-390018",,390018,FALSE,TRUE,BDQ/KAR,West,Vadodara_Dasranth_I,165a50f2-dccb-49d3-b399-096527a26835
IND425405AAA,Shirpur_KrantiNgr_D,Shirpur_KrantiNgr_D (Maharashtra),Shirpur,DC,Active,West,Maharashtra,India,21.345514,74.875404,59b28a79-b577-4ac2-992a-359dbdbee324,"Shirpur,Near Mahadev Mandir, Kranti Nagar, Shirpur, Dhule, Maharashtra - 425405",9923744250,425405,FALSE,TRUE,SPIR /KNG,West,Dhule_MIDC_I,a44f0a3f-ce40-4032-9750-85077642f099
INUPAAWG,Lalganj_AzadNgrRd_D,Lalganj_AzadNgrRd_D (Uttar Pradesh),Lalganj,DC,Active,North,Uttar Pradesh,India,26.177135,80.96129,3a73acfe-bca5-4c9e-bba7-127e6069934c,"Brijendra Nagar in front off baiswara degree College lalganj, 229206",9559106688,229206,FALSE,TRUE,LGN/AZN,North,Allahabad_Rasulabad_H,e12baae7-109f-4f7f-811f-f59fb0e91284
IND413801AAA,Daund_BoravDPP_D,Daund_BoravDPP_D (Maharashtra),Daund,DC,Inactive,West,Maharashtra,India,18.44092,74.57471,8a8bf5b5-f0ca-4653-b89d-7d22037cec20,"Shop no. 1, Boravkenagar, Daund-Baramati Road, Taluka- Daund, Pune- 413801",,413801,FALSE,TRUE,DD/BOR,West,Pune_PC,305e78ba-7e63-423b-bd75-3b5e12666290
INBRAQHC,Motihari_Kolhuarwa_D,Motihari_Kolhuarwa_D (Bihar),Motihari,DC,Active,East,Bihar,India,26.670311,84.92044,88045125-0f20-4e50-8083-d827798881c6,Kolhu Arwa Chowk Near Dewrahwa Baba Mandir NH28 Motihari East Champaran Bihar-845401,,845401,FALSE,TRUE,MOT/KOL,East,Motihari_Bariyarpur_I,c824da8b-52c0-49b9-98b8-ef287017cd29
INHPALQJ,Rakkar_Chouli_DPP,Rakkar_Chouli_DPP (Himachal Pradesh),Rakkar,DC,Active,North,Himachal Pradesh,India,31.782244,76.2537,b7a6363e-acac-4485-87e6-7be910021281,vill chouli near Rakkar distt Kangra himachal Pradesh -177043,,177043,FALSE,TRUE,RKR/CHL,North,BilaspurHP_Kothi_I,dc79c3ab-80ee-4856-95eb-848b80102297
INUPAMDC,Babrala_RajghatRd_D,Babrala_RajghatRd_D (Uttar Pradesh),Babrala,DC,Deboarding,North,Uttar Pradesh,India,28.260933,78.40337,4a9d5193-5f34-4b92-8b09-c042c3160369,"Ward no 3, Rajghat Road Babrala, Gunnaur Sambhal, UP-202421",7351629665,202421,FALSE,TRUE,BBL/RGD,North,Aligarh_BemaNagar_I,74727c05-dd21-43f8-add5-085fc9a218ed
IND450331AAA,Burhanpur_StRoad_D,Burhanpur_StRoad_D (Madhya Pradesh),Burhanpur,DC,Active,West,Madhya Pradesh,India,21.328186,76.2078,3ff79831-2919-40ba-b55a-925fe9c8ab28,"Station Road, Vakil Chawl, Mangal karyalay Burhanpur M.P. 450331",9516389090,450331,FALSE,TRUE,BAU/STR,West,Dhule_MIDC_I,a44f0a3f-ce40-4032-9750-85077642f099
IND829116AAA,Kathara_BandhDPP_D,Kathara_BandhDPP_D (Jharkhand),Kathara,DC,Inactive,East,Jharkhand,India,23.762386,85.8664,ac8b8422-3f91-4d5f-b0c4-d3521b641007,"Bandh Basti Rd, Bandh Basti jaiswaal market, Jharkhand 829116",,829116,FALSE,FALSE,KTH/BND,East,Ranchi_Hub,a5aca067-622d-4904-9c68-224bff1c59ed
IND413106AAB,Indapur_NehruDPP_D,Indapur_NehruDPP_D (Maharashtra),Indapur,DC,Inactive,West,Maharashtra,India,18.11403,75.03191,b26fcaba-a51c-4e65-a750-b18f258b3a85,"House No - 7A, Nehru Chowk Kasar patta, indapur, 
 413106",,413106,FALSE,FALSE,IND/NHR,West,Pune_PC,305e78ba-7e63-423b-bd75-3b5e12666290
IND832101AAA,Baharagora_DsprsDPP_D,Baharagora_DsprsDPP_D (Jharkhand),Baharagora,DC,Inactive,East,Jharkhand,India,22.2779,86.7249,2a1f9d77-2b9c-4632-b666-0de03f6e7794,"Baharagora, Bank of India Road, Near Das Press, East Singhbhum 832101 Jharkhand

",,832101,FALSE,TRUE,BHR/DSP,East,Ranchi_Hub,a5aca067-622d-4904-9c68-224bff1c59ed
INKAALUN,Bailhongal_HosamaniChal_DPP,Bailhongal_HosamaniChal_DPP (Karnataka),Bailhongal,DC,Active,South,Karnataka,India,15.821027,74.85941,8cc7841f-41a4-40bf-af2b-bf4b3c2aa289,Hosamani chal dharwad road bailhongal 591102,,591102,FALSE,TRUE,BHG/HSC,South,Belgaum_GandhiNgr_I,cd016151-f102-4da7-b69f-84d52427894e
INBRAAML,Champaran_Sonkhar_DPP,Champaran_Sonkhar_DPP (Bihar),West Champaran,DC,Inactive,East,Bihar,India,27.17728,84.33838,21c6377b-12ae-40b0-9dee-1733daf69d4b,"Sonkhar, Near Indian Oil Petrol Pump Ramnagar, West Champaran Bihar- 845106",,845106,FALSE,FALSE,CMP/SON,East,Motihari_Bariyarpur_I,c824da8b-52c0-49b9-98b8-ef287017cd29
INRJAANL,Chomu_BOBBank_DPP,Chomu_BOBBank_DPP (Rajasthan),Chomu,DC,Inactive,North,Rajasthan,India,27.174793,75.723526,ad73070a-d13b-411c-95c7-024eb8301137,"Gawariyon ki mori, Govt. hospital road Near BOB bank",,303702,FALSE,FALSE,CHM/BOB,North,Jaipur_Bagru_I,a39d8f94-ea55-4200-a7da-1553a4c12ecc
INHPAADD,Jukhala_Rihan_DPP,Jukhala_Rihan_DPP (Himachal Pradesh),Jukhala,DC,Active,North,Himachal Pradesh,India,31.309526,76.815895,29e9a8da-5622-4952-a19a-e2baf63e351e,village rihan PO Jukhala Tehsil sadar district Bilaspur HP,,174033,FALSE,TRUE,JKH/RHN,North,BilaspurHP_Kothi_I,dc79c3ab-80ee-4856-95eb-848b80102297
INHRAAJI,Palwal_Omaxe_D,Palwal_Omaxe_D (Haryana),Palwal,DC,Inactive,North,Haryana,India,28.133017,77.33576,2e0ee860-840f-480f-9e8a-7316a75e30c9,Om plaza near by pladdiam Hotel opp Omaxe city Palwal 121102,7876319020,121102,TRUE,TRUE,PLW/OMX,North,Faridabad_Mthurard_I,827cdf86-7ac8-45df-9c0b-dd7b795fea99
IND845401AAA,Motihari_RajaBzr_D,Motihari_RajaBzr_D (Bihar),Motihari,DC,Inactive,East,Bihar,India,26.64805,84.90386,e15cf31e-dd79-4e08-875f-b626947e54d3,"Circle No 9, Ward No 28, H No 1031/900, Balua Tal, Motihari, East Champaran Bihar-845401",,845401,FALSE,TRUE,MKI/RAJ,East,Motihari_Bariyarpur_I,c824da8b-52c0-49b9-98b8-ef287017cd29
INMHAPWN,Karjat_Gaykarwadi_D,Karjat_Gaykarwadi_D (Maharashtra),Karjat-MH,DC,Active,West,Maharashtra,India,18.551563,75.00307,c640b04c-95ef-416f-9f29-74af127af934,"Survey no. 3814, Bajar Tal Karjat, Ahemdnagar Karjar (CT) 414402",9890869788,414402,FALSE,TRUE,KAR/KAR,West,Ahmednagar_Kedgaon_I,fdc6ef33-854c-4522-bd81-322aeb2925f4
IN845453A1A,Lauriya_Nandangarh_D,Lauriya_Nandangarh_D (Bihar),Lauria Nandangarh,DC,Inactive,East,Bihar,India,26.995155,84.40242,3f2bdf82-4869-4344-abba-047ffc905535,"Fatima House, Bagha Road , Lauriya - 845453",8809963382,845453,FALSE,FALSE,LRY/NDG,East,Motihari_Bariyarpur_I,c824da8b-52c0-49b9-98b8-ef287017cd29
INRJAPXT,Jaipur_Gopalbari_C,Jaipur_Gopalbari_C (Rajasthan),Jaipur,CP,OnBoarding,North,Rajasthan,India,26.914305,75.79231,a360d3db-8d05-4494-ac83-a9b5a79d448b,"PLOT NO. 3A-3B, RATAN DEEP BUILDING,GOPAL BARI,AJMER ROAD, NEAR AJMER PULIA, JAIPUR 302001.",,302001,FALSE,TRUE,JAI/GOP,North,Jaipur_Sez_GW,45a9af84-aca9-4ef7-b3f2-87754c37e3d2
IN230135A1A,Patti_Baheliyapur_D,Patti_Baheliyapur_D (Uttar Pradesh),Patti-UP,DC,Active,North,Uttar Pradesh,India,25.928589,82.20408,068fd534-654e-4b77-9180-0423e2e810d1,"Patti, Pratapgarh, UP 230135",9670890923,230135,FALSE,TRUE,PAT/BAH,North,Allahabad_Rasulabad_H,e12baae7-109f-4f7f-811f-f59fb0e91284
INUPANJS,Lalgopalganj_Anandi_D,Lalgopalganj_Anandi_D (Uttar Pradesh),Lal Gopalganj,DC,Active,North,Uttar Pradesh,India,25.644014,81.62484,a0a5a665-2bc3-47ad-8a34-bc69f9bf413f,"Lalgopalganj Jethwara Road Anandi Garden, Uttar Pradesh-229413",9569077017,229413,FALSE,TRUE,LAL/AND,North,Allahabad_Rasulabad_H,e12baae7-109f-4f7f-811f-f59fb0e91284
INARALKV,Banderdewa_Dobum_D,Banderdewa_Dobum_D (Arunachal Pradesh),Banderdewa,DC,Inactive,East,Arunachal Pradesh,India,27.117308,93.803,26804d8d-4f8e-4cb8-9c89-03d2b8bcf5b6,"Near NH415 Highway, Dobum ,791123",9856360989,791123,FALSE,TRUE,BDW/DBM,East,Itanagar_Banderdewa_I,2e9721d4-4457-49d3-b6f2-136710f5d42a
IND246444AAB,Karnaprayag_Umalodge_D,Karnaprayag_Umalodge_D (Uttarakhand),Karnaprayag,DC,Inactive,North,Uttarakhand,India,30.262367,79.21859,73664ff8-0daf-4a2e-9db0-8cae7d042bc4,"Near UMA Lodge, Badrinath Road, Karnprayag, UK 246444",,246444,FALSE,FALSE,RKSH/UMA,North,Dehradun_RjndrNgr_H,2f6d6225-6ae1-4542-8a93-6d496a4b139c
IND515401AAB,Gooty_StatonRd_D,Gooty_StatonRd_D (Andhra Pradesh),Gooty,DC,Inactive,South,Andhra Pradesh,India,15.139467,77.6256,7ddee595-04c8-462a-a13f-2f2ba4924a4c,"Beside AVR school,Station road,Gooty-515401",,515401,FALSE,TRUE,GY/SRD,South,Anantapur_Rudrampeta_I,afc4e4e5-f3d9-4000-b82f-cbbb58a1803d
INHPALYT,Nadaun_Bela_D,Nadaun_Bela_D (Himachal Pradesh),Nadaun,DC,Active,North,Himachal Pradesh,India,31.783113,76.352295,5a0e2c8a-5609-4253-9ae2-487d3dfb1901,VPO Bela Tehsil Nadaun Distt. Hamirpur 177033 (H.P.),9418147197,177033,FALSE,TRUE,NDU/BLA,North,BilaspurHP_Kothi_I,dc79c3ab-80ee-4856-95eb-848b80102297
INORAQNU,Behrampur_TriveniNagar_L,Behrampur_TriveniNagar_L (Orissa),Behrampur,SC,Deboarding,East,Orissa,India,19.315056,84.77596,1a3f101e-f4ef-4420-97d4-2dac8e09ad0f,"adarsh marg, p.s -badabazar,berhumpur-760002",,760002,FALSE,FALSE,BHRF,East,Berhampur_Khajuria_I,f25f1815-b666-4984-9f5e-c2efdb49fd7d
INUPASDA,Babrala_Ward3_DPP,Babrala_Ward3_DPP (Uttar Pradesh),Babrala,DC,Active,North,Uttar Pradesh,India,28.26105,78.40344,4ab602ec-8051-4a34-9796-b26719bc8cd2,"Chandravati w/o Anand swaroop sharma ward no 3 Rajghat Road Babrala Uttar pradesh 243751	",,243751,FALSE,TRUE,BAB/WAR,North,Aligarh_BemaNagar_I,74727c05-dd21-43f8-add5-085fc9a218ed
IN222302A1A,Lambhua_Chaukiya_D,Lambhua_Chaukiya_D (Uttar Pradesh),Lambhua,DC,Active,North,Uttar Pradesh,India,26.140034,82.21944,bc88bba1-7285-476b-b4bc-88e50f67f955,"Gram Post Lambhua, Chaukia Road, UP 222302",6393245935,222302,FALSE,TRUE,LBA/LAM,North,Allahabad_Rasulabad_H,e12baae7-109f-4f7f-811f-f59fb0e91284
INCGALLC,Pithora_BagbahraRd_DPP,Pithora_BagbahraRd_DPP (Chhattisgarh),Pithora,DC,Inactive,West,Chhattisgarh,India,21.243263,82.51492,c1eba57e-9e27-4ff0-851f-95bdc12c844c,"Bagbahra Road, Near - Bus Stand, Pithora, C.G. Pin code - 493551",,493551,FALSE,FALSE,PTH/BGH,West,Raipur_Sarona_H,f062798f-a263-4030-9ae3-c00c42c5b440
INORAOFK,Bhanjanagar_AnnapurnaFS_D,Bhanjanagar_AnnapurnaFS_D (Orissa),Bhanjanagar,DC,Active,East,Orissa,India,19.923548,84.57566,d9521712-c3ab-4935-8330-3278a94802d5,"Baunsalundi,via bhanjanagar, pin -761133",7681087259,761133,FALSE,TRUE,BHA/ANN,East,Berhampur_Khajuria_I,f25f1815-b666-4984-9f5e-c2efdb49fd7d
INUPARRM,Aligarh_IndustrialEstate_D,Aligarh_IndustrialEstate_D (Uttar Pradesh),Aligarh,DC,OnBoarding,North,Uttar Pradesh,India,27.931507,78.02627,80ee357b-48ef-48df-ba29-ab4737f59b8a,"Industrial Estate, D-11A, G.T Road, Aligarh, Uttar Pradesh-202001",,202001,FALSE,TRUE,ALI/DUS,North,Aligarh_BemaNagar_I,74727c05-dd21-43f8-add5-085fc9a218ed
IND493445AAB,Mahasamund_RajpurRD_D,Mahasamund_RajpurRD_D (Chhattisgarh),Mahasamund,DC,Inactive,West,Chhattisgarh,India,21.11017,82.09989,48be7355-815e-490f-9dea-e07578282d49,"Ward no. 1, Raipur Road, Dr. Rajendra Prasad Ward 12, Mahasamund, Chhattisgarh 493445",9754787472,493445,FALSE,TRUE,MSMD/RJP,West,Raipur_Sarona_H,f062798f-a263-4030-9ae3-c00c42c5b440
IN246171A1A,Rudraprayag_Raitoli_D,Rudraprayag_Raitoli_D (Uttarakhand),Rudraprayag,DC,Inactive,North,Uttarakhand,India,30.270235,78.95439,89049ef0-195f-48a3-bd8a-ce82741376b6,"Raitoli, Loli, Rudrapyayag, Uttarakhand 246171",,246171,FALSE,TRUE,RUD/RAI,North,Dehradun_RjndrNgr_H,2f6d6225-6ae1-4542-8a93-6d496a4b139c
IND324007AAA,Kota,Kota (Rajasthan),Kota,DC,Inactive,North,Rajasthan,India,25.12776,75.85122,699d4367-c3c2-4f0e-9647-727861cab161,SHOP NO 2 PLOT NO.438 TRANSPORT NAGAR KOTA-324005,,324007,FALSE,TRUE,KOT/SIN,North,Kota_Trnsprtngr_I,f0de160e-a8c2-4228-a7ab-15b8c80a760a
INUPALJG,LalganjAjhara_HPPump_D,LalganjAjhara_HPPump_D (Uttar Pradesh),Lalganj Ajhara,DC,Active,North,Uttar Pradesh,India,25.931,81.697,a035005f-4996-47cc-bb8b-836b3e5bb65d,"Shitalmau, Lalganj, Pratapgarh, UP 230132",9415494000,230132,FALSE,TRUE,LAL/HPP,North,Allahabad_Rasulabad_H,e12baae7-109f-4f7f-811f-f59fb0e91284
INMHARTU,Jalgaon_Midc_D,Jalgaon_Midc_D (Maharashtra),Jalgaon,DC,OnBoarding,West,Maharashtra,India,20.977608,75.58892,320d728c-55b4-427a-9392-7276f525cb91,"M/s Disha Industries Y-3 MIDC area, Jalgaon(M Corp), Maharashtra-425003",,425003,FALSE,TRUE,JAL/IDC,West,Dhule_MIDC_I,a44f0a3f-ce40-4032-9750-85077642f099
IND845438AAA,Bettiah_BypassRd_D,Bettiah_BypassRd_D (Bihar),Bettiah,DC,Inactive,East,Bihar,India,26.80595,84.51301,5706da8e-ae3b-49e2-8c22-190d032979c4,"Opp Hotel Kisan, Behind Reliance Mall, Bypass Road, Bettiah , 845438",,845438,FALSE,FALSE,BTH/BYP,East,Motihari_Bariyarpur_I,c824da8b-52c0-49b9-98b8-ef287017cd29
IND122105AAA,Tauru_Ward4DPP_D,Tauru_Ward4DPP_D (Haryana),Bilaspur-HR,DC,Inactive,North,Haryana,India,28.211967,76.9512,d4aa8ea6-a42c-4439-b29b-f062c2e4e158,"WARD NO. 4 TAURU VPO-TAURU TEH-TAURU DISTT-NUH MEWAT,122105",,122105,FALSE,FALSE,TUR/WRD,North,Gurgaon_Bilaspur_P,828acd1c-fa6c-43fc-94da-cc33bac208b2
INDDAQST,Daman_Ringanwada_L,Daman_Ringanwada_L (Daman & Diu),Daman,SC,Deboarding,West,Daman & Diu,India,20.412283,72.87465,6c05eee6-b9dc-4db7-92dc-b067d511fdc6,"Spoton Logistics Pvt Ltd, Shop No 3 opp... Ringanwada Petrol Pump, Near Parkson Packaging company Ringanwada Daman 396210",,396210,FALSE,FALSE,NMBB,West,Vapi_GIDC_H,db8f6928-2878-4930-800a-b69ad5e88d5e
INUPALTS,MauUP_AllahbadRd_DPP,MauUP_AllahbadRd_DPP (Uttar Pradesh),MauUP,DC,Deboarding,North,Uttar Pradesh,India,25.26611,81.3759,82134653-1b0b-4ace-8579-1d43755548a1,Karwi to allahabad road Near by mau bus stand Pin 210209,,210209,FALSE,FALSE,MAU/ALB,North,Allahabad_Central_H_1,732cc135-7e2b-4299-a690-d3b45e0c17e6
INMHAAWZ,Ashti_Murshadpur_DPP,Ashti_Murshadpur_DPP (Maharashtra),Ashti,DC,Active,West,Maharashtra,India,18.80672,75.17456,75c17c8f-90bb-48cc-9dee-5719685eacec,"Ashti azad nagar Midc road near shahu bank  ashti Dist beed,Maharshtra Pin code-414203",,414203,FALSE,TRUE,ASH/MSD,West,Ahmednagar_Kedgaon_I,fdc6ef33-854c-4522-bd81-322aeb2925f4
INCGALPM,Berla_SushilPrk_DPP,Berla_SushilPrk_DPP (Chhattisgarh),Berla,DC,Inactive,West,Chhattisgarh,India,21.519049,81.481255,1cf82701-c31a-4c62-ba94-eb941f93870b,"Sushil corporate park, Berla to saja ,Dhamda Rode, TEH- BERLA,Dist- Bemetara, pin code - 491332",,491332,FALSE,TRUE,BRL/SLP,West,Raipur_Sarona_H,f062798f-a263-4030-9ae3-c00c42c5b440
IN491445A1A,Dongargarh_Kalksa_D,Dongargarh_Kalksa_D (Chhattisgarh),Dongargarh,DC,Inactive,West,Chhattisgarh,India,21.193823,80.76941,3c66b4fb-341e-4b94-a6d1-0230a3b6688c,"Ward no 3, Indra Nagar, Karbala Chowk, Dongargarh, Chhattisgarh Pincode 491445",,491445,FALSE,TRUE,DNG/KLK,West,Raipur_Sarona_H,f062798f-a263-4030-9ae3-c00c42c5b440
IND396105AAA,Bhilad_Umargaon_DC,Bhilad_Umargaon_DC (Gujarat),Bhilad,DC,Active,West,Gujarat,India,20.180721,72.76355,9b95e8ab-3f66-4832-8b61-febb4119a33a,"shop No.2 Shivkrupa Apt,Beside Harikrupa Apt.,opp. Jalaram cinema Sarigam Road Bhilad_Umargam:396105-Gujarat",8999812383,396105,FALSE,TRUE,BLD/UMD,West,Vapi_GIDC_H,db8f6928-2878-4930-800a-b69ad5e88d5e
INMPASGV,Morena_Ambah_D,Morena_Ambah_D (Madhya Pradesh),Morena,DC,OnBoarding,West,Madhya Pradesh,India,26.713364,78.23337,c40f7901-1c5f-46e5-a54b-135cd5d04b0b,"MLD Cold Storage,Pinahat Road, Ambah District-Morena Madhya Pradesh-476111",,476111,FALSE,TRUE,MOR/AMB,West,Gwalior_PurniChhwani_P,c3369343-8132-4558-8efa-8dba5044039c
INUPAAUC,Chitrakoot_Karwi_DPP,Chitrakoot_Karwi_DPP (Uttar Pradesh),Chitrakoot,DC,Inactive,North,Uttar Pradesh,India,25.21899,80.91965,72b6635a-295a-470f-a2b0-29e22fe0d518,"Sunderlal Babulal Baldau Ganj Shankar Bazar, Chitrakoot Dham, Uttar Pradesh 210205",,210205,FALSE,FALSE,CHR/KRW,North,Allahabad_Central_H_1,732cc135-7e2b-4299-a690-d3b45e0c17e6
INUPAAZS,SikandraRao_HathrasRd_DPP,SikandraRao_HathrasRd_DPP (Uttar Pradesh),Sikandra Rao,DC,Inactive,North,Uttar Pradesh,India,27.689753,78.36651,8c4d7ea2-1ba4-4f3d-b508-e2b6eb990e46,"shop no-1, Aone marbel hathras road Sikandra Rao, 204215",,204215,FALSE,FALSE,SKR/HTR,North,Aligarh_BemaNagar_I,74727c05-dd21-43f8-add5-085fc9a218ed
INRJALQL,Nainwa_SBI_DPP,Nainwa_SBI_DPP (Rajasthan),Nainwa,DC,Inactive,North,Rajasthan,India,25.776484,75.86438,b5d6d1a2-4709-41c2-938c-191eaac0aced,"Near State bank of India, main market, garh palace,, Nainwa, Rajasthan 323801",,323801,FALSE,FALSE,NNW/SBI,North,Kota_Trnsprtngr_I,f0de160e-a8c2-4228-a7ab-15b8c80a760a
IND591302AAB,Khanapur_StatinRD_D,Khanapur_StatinRD_D (Karnataka),Khanapur,DC,Active,South,Karnataka,India,15.637842,74.50291,c0194dff-a16a-482e-923d-fd46174fcf25,"#144/3B-13 Murgud Plot Station Road, Khanapur, Belagaum, Karnataka-591302",9590934787,591302,FALSE,TRUE,KHN/STN,South,Belgaum_GandhiNgr_I,cd016151-f102-4da7-b69f-84d52427894e
INUPAAVS,SikandraRao_JydevNgr_DPP,SikandraRao_JydevNgr_DPP (Uttar Pradesh),Sikandra Rao,DC,Inactive,North,Uttar Pradesh,India,27.689758,78.36684,661b15b1-8b80-4df8-bef1-fba626500059,"Hno 558 Jaydev nagar Hathras Road SikandraRao, Hathras 204215.",,204215,FALSE,FALSE,SKN/JYN,North,Aligarh_BemaNagar_I,74727c05-dd21-43f8-add5-085fc9a218ed
IN303303A1B,Dausa_Hansmahl_DPP,Dausa_Hansmahl_DPP (Rajasthan),Dausa,DC,Inactive,North,Rajasthan,India,26.90412,76.31856,ff14037b-cfd0-49e2-a76f-6c1273ccacb6,"Opp. Bank of Baroda, agar road, Bhandana, Dausa 303303",,303303,FALSE,FALSE,DSA/HSM,North,Jaipur_Bagru_I,a39d8f94-ea55-4200-a7da-1553a4c12ecc
IN424206A1A,Jamner_Sonbrdi_D,Jamner_Sonbrdi_D (Maharashtra),Jamner,DC,Inactive,West,Maharashtra,India,20.803272,75.77824,afc11678-ac85-4790-99a7-42ecc5e57778,"Shop No.3, Jain Complex, Opposite Chikhali Urban Bank, Pachora Road, Jamner, Maharashtra Pincode 424206",8600656628,424206,FALSE,TRUE,JMN/SNB,West,Dhule_MIDC_I,a44f0a3f-ce40-4032-9750-85077642f099
IND607002AAA,Cuddalore_DC,Cuddalore_DC (Tamil Nadu),Cuddalore,DC,Inactive,South,Tamil Nadu,India,11.748121,79.75571,08ed2484-a8ae-4009-bf2a-3e4e0de290cd,No:74/17 1ST CROSS SUBBARAYALU NAGAR THIRUPAPULIYUR CUDDALORE-607002,,607002,FALSE,FALSE,PDY/CUD,South,Pondicherry_Vasanthm_I,fa8379a0-4d41-4dde-840d-4b59037e6abb
INMHANHT,Jamner_BusStd_D,Jamner_BusStd_D (Maharashtra),Jamner,DC,Active,West,Maharashtra,India,20.80724,75.77154,2a6cd2df-84e9-4139-84be-20e9c4ec385c,"Plot no-29,30,38,37,3195/39 Govind colony Waki road, Jamner, Maharashtra 424206",8600656628,424206,FALSE,TRUE,JAM/BSD,West,Dhule_MIDC_I,a44f0a3f-ce40-4032-9750-85077642f099
IND761032AAA,Kodala_Central_DPP_1,Kodala_Central_DPP_1 (Orissa),Kodala,DC,Inactive,East,Orissa,India,19.628666,84.92476,ff6f5313-58d6-4ed9-881d-b6ec513d669f,"MAHALAXMI ONLINE SERVICE CENTER,KODALA,PLOT NO D-31 761032",,761032,FALSE,FALSE,KDL/CNT,East,Berhampur_Khajuria_I,f25f1815-b666-4984-9f5e-c2efdb49fd7d
INORAMIF,Mohana_Betarsingi_D,Mohana_Betarsingi_D (Orissa),Mohana,DC,Active,East,Orissa,India,19.456984,84.26696,ca0c3909-6a43-4818-a19b-e4fe64d7826e,"Betarsingi, Odisha 761015",8658957559,761015,FALSE,TRUE,MHN/BTS,East,Berhampur_Khajuria_I,f25f1815-b666-4984-9f5e-c2efdb49fd7d
INMHABFC,Bhusawal_JalgaonRd_D,Bhusawal_JalgaonRd_D (Maharashtra),Bhusawal,DC,Active,West,Maharashtra,India,21.045544,75.765076,5b24dfce-54a9-434c-966c-a9e0973d7105,S No 225/2 /53 Jalgaon Road Bhusawal Maharashtra - 425201,9665223300,425201,FALSE,TRUE,BSW/JGN,West,Dhule_MIDC_I,a44f0a3f-ce40-4032-9750-85077642f099
IND641001AAA,Coimbatore_Ukkadam_D,Coimbatore_Ukkadam_D (Tamil Nadu),Coimbatore,DC,Inactive,South,Tamil Nadu,India,10.985936,76.96541,281756f1-3de5-4a58-8eac-c2663f0ff52b,"254 , Rumurthy pathai , selvapuram , ukkadam - 641026",,641001,FALSE,FALSE,CJB/UKK,South,Coimbatore_Krumtmpti_H,ebe88efd-0d7e-40fe-91ed-3f77b3cbb21a
IND123001AAA,Narnaul_DC,Narnaul_DC (Haryana),Narnaul,DC,Inactive,North,Haryana,India,28.05335,76.114204,32667561-f559-4ee3-bff2-d4cba021f537,"Modawala mandir gate, Opp. Saini school, Near SBI bank,main rewari Road, Narnaul(HR)123001",,123001,FALSE,TRUE,NNL/NDC,North,Gurgaon_Bilaspur_P,828acd1c-fa6c-43fc-94da-cc33bac208b2
IND230204AAA,Kunda_SvmdrDPP_D,Kunda_SvmdrDPP_D (Uttar Pradesh),Kunda,DC,Inactive,North,Uttar Pradesh,India,25.720005,81.52,b9b39746-bedd-4edb-bc0c-0479af6356fc,"SHIVPURAM NEAR SHIV MANDIR,KUNDA, Pratapgarh-230204	

",,230204,FALSE,TRUE,KND/SVM,North,Allahabad_Central_H_1,732cc135-7e2b-4299-a690-d3b45e0c17e6
IN796310A1A,Khawzawl_Chimveng_D,Khawzawl_Chimveng_D (Mizoram),Khawzawl,DC,Deboarding,East,Mizoram,India,23.518185,93.18884,d4a098ad-98d3-4392-8e20-ef9172975370,"Khawzawl,Champai,Mizoram,796310",,796310,FALSE,FALSE,KHW/CHV,East,Aizawl_Tanhril_I,aaa35a23-cff4-436b-b0eb-0e96d21a62ca
INRJALQF,Jhalawar_Raipur_DPP,Jhalawar_Raipur_DPP (Rajasthan),Jhalawar,DC,Inactive,North,Rajasthan,India,24.362545,76.1825,b059c3c8-4d41-4b70-907d-3eaef08b4566,"near Post office ,raipur jhalawar rajasthan-326036",,326036,FALSE,FALSE,JLW/RPR,North,Kota_Trnsprtngr_I,f0de160e-a8c2-4228-a7ab-15b8c80a760a
INUPARQB,Aligarh_SikandarpurB _D,Aligarh_SikandarpurB _D (Uttar Pradesh),Aligarh,DC,Inactive,North,Uttar Pradesh,India,27.931507,78.02627,185ecb05-645e-4f7d-a0b3-7fa2a41dc6da,"Industrial Estate, D-11A, G.T Road, Aligarh, Uttar Pradesh-202001",,202001,FALSE,FALSE,ALG/SDB,North,Aligarh_BemaNagar_I,74727c05-dd21-43f8-add5-085fc9a218ed
IND202001AAC,Aligarh_Central_D_2,Aligarh_Central_D_2 (Uttar Pradesh),Aligarh,DC,Active,North,Uttar Pradesh,India,27.876347,78.09394,4f6b4a68-2b72-43b5-a5ec-8bf6cb62bd2e,"1/31, CFI, Near Jwalapuri Police Chowki, Etah Chungi GT Road, Aligarh, UP  202001",9999468544,202001,FALSE,TRUE,ALJN/CRT,North,Aligarh_BemaNagar_I,74727c05-dd21-43f8-add5-085fc9a218ed
INMHAPFI,Gadhinglaj_Gijawane_D,Gadhinglaj_Gijawane_D (Maharashtra),Gadhinglaj,DC,Active,West,Maharashtra,India,16.209497,74.33568,1923eaef-2a5d-4078-ba20-ef89f68390ee,"1667, Near Marathi School, Gadhingaj Kolhapur Maharashtra -416502",9423237527,416502,FALSE,TRUE,GAD/GIJ,West,Belgaum_GandhiNgr_I,cd016151-f102-4da7-b69f-84d52427894e
IND761030AAA,Khallikot_MnRdDPP_D,Khallikot_MnRdDPP_D (Orissa),Khallikot,DC,Inactive,East,Orissa,India,19.608997,85.088455,8c48be77-5f5b-4a9a-99ef-2e325df585d8,"Nilandri Business Services (OPC) Pvt. Ltd.
Main Road Khalikot,
Khallikot, Ganjam
Odisha -761030",,761030,FALSE,FALSE,KHL/MNR,East,Berhampur_Khajuria_I,f25f1815-b666-4984-9f5e-c2efdb49fd7d
INKAAAWJ,Belgaum_MahntshNgr_D,Belgaum_MahntshNgr_D (Karnataka),Belgaum,DC,Inactive,South,Karnataka,India,15.87544,74.52973,69f4e849-a221-4b06-aa55-17568a1d8971,"CST No 7642, Plot No 2448, Sector 12, MM Extension, Mahantesh Nagar, Belgaum, Karnataka 590016",9731436325,590016,FALSE,FALSE,BLG/MTS,South,Belgaum_GandhiNgr_I,cd016151-f102-4da7-b69f-84d52427894e
INORANSG,Jagannathprasad_Barabara_DPP,Jagannathprasad_Barabara_DPP (Orissa),Jagannathprasad,DC,Active,East,Orissa,India,19.97158,84.78035,90c1528d-841d-431c-ad6c-0b9b4b57d58e,"Block chhak , Jagannathprasad , Pincode- 761121",,761121,FALSE,TRUE,JNP/BRB,East,Berhampur_Khajuria_I,f25f1815-b666-4984-9f5e-c2efdb49fd7d
IND492007AAA,Raipur_Central_D_5,Raipur_Central_D_5 (Chhattisgarh),Raipur,DC,Inactive,West,Chhattisgarh,India,21.256287,81.653885,62201c42-ae3d-402a-b53d-a8670e9352a7,"Near Housing board colony, Shadija compound ward 28, Avanti vihar shankar nagar, Raipur 492007",8827942143,492007,FALSE,TRUE,RPC/CNT,West,Raipur_Sarona_H,f062798f-a263-4030-9ae3-c00c42c5b440
IND761105AAB,Polasara_SqureDPP_D,Polasara_SqureDPP_D (Orissa),Polasara,DC,Inactive,East,Orissa,India,19.691141,84.81626,371365aa-eb34-418c-9b5b-97ca562c6aee,"C/o-Mamata Kumari Panigrahi,House No-State Bank Square, Main Road,Polasara,Dist-Ganjam, Odisha,PIN-761105",,761105,FALSE,FALSE,KIT/SQR,East,Berhampur_Khajuria_I,f25f1815-b666-4984-9f5e-c2efdb49fd7d
INRJAQWC,Jaipur_JeewanDeepColony_H,Jaipur_JeewanDeepColony_H (Rajasthan),Jaipur,HUB,Deboarding,North,Rajasthan,India,26.994127,75.77655,703e22b8-6e7d-47a6-a339-c57e47ab021c,"Spoton Logistics Pvt. Ltd , Plot 696A ,Road 9F2, Vki Area, Jaipur 302013",9001200000,302013,FALSE,FALSE,JAOH,North,Jaipur_Sez_GW,45a9af84-aca9-4ef7-b3f2-87754c37e3d2
INBRAPPZ,Kuchaikote_Sipaya_D,Kuchaikote_Sipaya_D (Bihar),Kuchaikote,DC,Active,East,Bihar,India,26.560062,84.330765,609ae319-2196-4952-bef4-74305636db0f,"KUCHAIKOTE MOURYA MARKET,P.O+POLICE STATION-KUCHAIKOTE,DISTRICT-GOPALGANJ,PIN CODE-841501",7210199355,841501,FALSE,TRUE,KUC/SIY,East,Motihari_Bariyarpur_I,c824da8b-52c0-49b9-98b8-ef287017cd29
INMPASEQ,Gwalior_PuraniChhawani_L,Gwalior_PuraniChhawani_L (Madhya Pradesh),Gwalior,SC,OnBoarding,West,Madhya Pradesh,India,26.271887,78.13051,a2a1a350-20a1-4706-9ee3-59d47d716d36,"Halka No. 46, Survey no. 478/1, 478/2, 479/1/3 Purani Chhawani, Gwalior, Madhya Pradesh- 474010",,474010,FALSE,TRUE,GWA/RAN,West,Gwalior_PurniChhwani_P,c3369343-8132-4558-8efa-8dba5044039c
IND175131AAA,Manali_Aleo_D,Manali_Aleo_D (Himachal Pradesh),Manali,DC,Inactive,North,Himachal Pradesh,India,32.25918,77.189995,4aef5771-9b2c-480a-8967-45e18e57fc46,"Vashisht Manu Temple Road,  Near Sita Cottage, PO, Koshla, Manali, Himachal Pradesh 175131",,175131,FALSE,FALSE,UHL/ALE,North,BilaspurHP_Kothi_I,dc79c3ab-80ee-4856-95eb-848b80102297
INUPABBR,Nariwari_SBIBank_DPP,Nariwari_SBIBank_DPP (Uttar Pradesh),Nariwari,DC,Inactive,North,Uttar Pradesh,India,25.0786,81.7363,e75f43be-f001-489b-80f5-fe77c366ec65,"Nearby Police chowki , Naribari, Koraon, Praygraaj uttar pradesh - 212106",,212106,TRUE,TRUE,NAR/SBI,North,Allahabad_Central_H_1,732cc135-7e2b-4299-a690-d3b45e0c17e6
IND791102AAB,Pasighat_MissonRd_K,Pasighat_MissonRd_K (Arunachal Pradesh),Pasighat,KIOSK,Inactive,East,Arunachal Pradesh,India,28.062603,95.325195,f514b7d0-d7a4-49b8-a536-02dac93591b0,"Town & Vill. 2 Mile, PO Pashighat, Dist. East Siang, Pin 791102",,791102,FALSE,TRUE,PSGHT/MISK,East,Pasighat_MissonRd_D,d02c4dcc-3e70-4457-9985-f3b233cb7666
IN401606A1A,Talasari_Patlpda_D,Talasari_Patlpda_D (Maharashtra),Talasari,DC,Active,West,Maharashtra,India,20.117048,72.917625,2a0b8d5a-52e6-4f52-88aa-36d17437a802,"881, At post - Talasari, Taluka- Talasari, Near Panchayat Samiti, Dist-Palghar 401606",8552881765,401606,TRUE,TRUE,TAL/PAT,West,Vapi_GIDC_H,db8f6928-2878-4930-800a-b69ad5e88d5e
INMHAPAB,Shrigonda_Belwandi_D,Shrigonda_Belwandi_D (Maharashtra),Shrigonda,DC,Active,West,Maharashtra,India,18.721203,74.588135,7cc55f33-6f1c-4b76-afac-46fe67f84afc,1119/3 Shigonda Shirur Road Shrigonda Ahmadnagar Belwandi Maharashtra -413702,8600312899,413702,FALSE,TRUE,SHR/BEL,West,Ahmednagar_Kedgaon_I,fdc6ef33-854c-4522-bd81-322aeb2925f4
IN761015A1A,Mohana_Badipur_D,Mohana_Badipur_D (Orissa),Mohana,DC,Inactive,East,Orissa,India,19.448011,84.25889,c0a1bacb-f4f8-47f6-bbff-bf23ef6797f3,"High School Chakka in front of Mini stadium,Mohana,pin-761015",7978014765,761015,FALSE,FALSE,MHA/BDI,East,Berhampur_Khajuria_I,f25f1815-b666-4984-9f5e-c2efdb49fd7d
INUPAQLE,Khaga_Khakreru_D,Khaga_Khakreru_D (Uttar Pradesh),Khaga,DC,OnBoarding,North,Uttar Pradesh,India,25.618279,81.130646,09da812b-5bb2-44f4-bc62-c79d00ef85a4,"Near Chachida Moad Kot Road Khakhreru,Uttar Pradesh-212656",6361103630,212656,FALSE,TRUE,KHA/RER,North,Allahabad_Rasulabad_H,e12baae7-109f-4f7f-811f-f59fb0e91284
INUPAOZV,Jalesar_MusiyarRoad_D,Jalesar_MusiyarRoad_D (Uttar Pradesh),Jalesar,DC,Active,North,Uttar Pradesh,India,27.478416,78.31483,94422111-0a9c-462e-8c19-ede9cc0ed132,"Mohalla Mahaveerganj Nidauli chauraha By Pass Road Jalesar  District Etah, UP-207302",9411683672,207302,FALSE,TRUE,JAL/MUS,North,Aligarh_BemaNagar_I,74727c05-dd21-43f8-add5-085fc9a218ed
INTNAPOM,Chennai_Temp2_L,Chennai_Temp2_L (Tamil Nadu),Chennai,SC,Deboarding,South,Tamil Nadu,India,13.213675,80.07858,6175b853-3899-4cde-b832-0a905950843c,"S.No. 42, Lakshminathapuram Village, Tiruavallur High Road, Poochiathipattu post, Uttukottai Taluk, Tiruvallur Dist, Chennai-",,602024,FALSE,TRUE,CHE/PME,South,Chennai_Puzhal_L,642294f8-44e0-4922-9b4e-ac4d55e84760
INORAOFJ,Hinjilicut_RegidiSt_D,Hinjilicut_RegidiSt_D (Orissa),Hinjilicut,DC,Active,East,Orissa,India,19.478716,84.74155,912b80f6-d152-4ca3-be74-291e4b7e38e0,"Hinjilicut,Block Colony Near Hanuman Temple PS - Hinjilicut ,Dist - Ganjam , State - Odisha Pin code - 761102",8658957559,761102,FALSE,TRUE,HIN/RGS,East,Berhampur_Khajuria_I,f25f1815-b666-4984-9f5e-c2efdb49fd7d
INMHARRW,Dhule_MohadiUpnagar_D,Dhule_MohadiUpnagar_D (Maharashtra),Dhule,DC,OnBoarding,West,Maharashtra,India,20.862255,74.76757,9f65a453-5994-4f26-8f04-8ebf65b24ff4,"Survey No 505/4, P1, N B Compound, Bombay Agra Highway N. H. No 3, Dhule Maharashtra 424311",,424311,FALSE,TRUE,DHU/HAD,West,Dhule_MIDC_I,a44f0a3f-ce40-4032-9750-85077642f099
INORANVB,Galleri_Central_DPP,Galleri_Central_DPP (Orissa),Galleri,DC,Active,East,Orissa,India,20.091862,84.5693,d14776c7-674f-4709-9283-0c5e26daf943,"At-Badadanda sahi,Gallery,Ganjam,Orissa-761141",,761141,FALSE,TRUE,GLR/CNT,East,Berhampur_Khajuria_I,f25f1815-b666-4984-9f5e-c2efdb49fd7d
INRJAPUK,Kota_Indraprastha_I,Kota_Indraprastha_I (Rajasthan),Kota,IPC,Active,North,Rajasthan,India,25.117083,75.86262,f6f5acac-5771-4979-8dc9-ff833668a3ab,"G-458-459, ROAD NO 7, IPIA, Kota, Rajasthan, 324007",7665828429,324007,TRUE,TRUE,KOT/IND,North,Kota_Trnsprtngr_I,f0de160e-a8c2-4228-a7ab-15b8c80a760a
IN176110A1C,Sujanpur_Busstandrd_D,Sujanpur_Busstandrd_D (Himachal Pradesh),Sujanpur,DC,Active,North,Himachal Pradesh,India,31.834667,76.502975,6ea14cdf-0752-4ae5-af31-d595f2d97b03,"Sujanpur Bus Stand Rd, Sujanpur Tira, Himachal Pradesh 176110",9736263728,176110,FALSE,TRUE,SUJ/BST,North,BilaspurHP_Kothi_I,dc79c3ab-80ee-4856-95eb-848b80102297
IND413203AAA,Karmala_Central_DPP_1,Karmala_Central_DPP_1 (Maharashtra),Karmala,DC,Active,West,Maharashtra,India,18.45285,75.21606,cbe84945-1c5f-4990-9300-33f3b2d46759,"Jamkhed Road, Pothare, Tal Karmala, Dist Solapur",,413203,FALSE,TRUE,KRM/CNT,West,Ahmednagar_Kedgaon_I,fdc6ef33-854c-4522-bd81-322aeb2925f4
IND493773AAB,Dhamtari_DhntlaRD_D,Dhamtari_DhntlaRD_D (Chhattisgarh),Dhamtari,DC,Inactive,West,Chhattisgarh,India,20.693,81.55857,a3342f4b-9f68-4987-80f6-e4d9a55eac07,"Dhanitola Road, Near Sheetla Mata Mandir and School Chowk, Dhamtari, Chhattisgarh 493773",,493773,FALSE,TRUE,DTR/DHN,West,Raipur_Sarona_H,f062798f-a263-4030-9ae3-c00c42c5b440
INORAAJQ,Raygada_Muniguda_DPP,Raygada_Muniguda_DPP (Orissa),Raygada,DC,Inactive,East,Orissa,India,19.62403,83.4953,f2742f25-3205-42d9-a53b-9e37138d9828,"At/po - Main road, Muniguda Infron of Block   office Dist - Rayagada, odisha Pin - 765020",,765020,FALSE,FALSE,RYG/MNG,East,Berhampur_Khajuria_I,f25f1815-b666-4984-9f5e-c2efdb49fd7d
IND410501AAC,TalegaonD_KhlmbDPP_D,TalegaonD_KhlmbDPP_D (Maharashtra),Talegaon Dabhade,DC,Inactive,West,Maharashtra,India,18.742603,73.775764,ce507868-d474-498a-b4f1-9b568ac515be,"At.post Khalumbre, Talegaon Chakan Road ,opp. Sant Tukaram Hospital,Khalumbre ,Tal- Khed, Dist - Pune-410501",,410501,FALSE,FALSE,TLG/KHL,West,Pune_PC,305e78ba-7e63-423b-bd75-3b5e12666290
IN323305A1A,Rawatbhata_Bariel_D,Rawatbhata_Bariel_D (Rajasthan),Rawatbhata,DC,Inactive,North,Rajasthan,India,24.94047,75.58707,17513780-ecc4-455a-addc-5f7e8fc5fe5c,"Kota Road, Opposite Ranapunja Stadium, Near Maruti Showroom, Rawatbhata, RJ 323305",9680052939,323305,FALSE,TRUE,RAW/BAR,North,Kota_Trnsprtngr_I,f0de160e-a8c2-4228-a7ab-15b8c80a760a
IND425409AAC,Shahada_DndichaRD_D,Shahada_DndichaRD_D (Maharashtra),Shahada,DC,Inactive,West,Maharashtra,India,21.534746,74.47468,dea68275-72b4-4e94-8c19-c2e68caa3f7d,"Shop No. 1 & 2, Dondaicha Road, Yashodhan Colony Near Nandanvan Hotel. Shahada Pin 425409",,425409,FALSE,TRUE,RNL/DND,West,Dhule_MIDCAvdn_I,a55fb505-9d60-456c-8b74-06951e5e5ef9
IN425415A1A,Akkalkuva_Mkrnifli_D,Akkalkuva_Mkrnifli_D (Maharashtra),Akkalkuva,DC,Inactive,West,Maharashtra,India,21.55353,74.01385,89d7a025-7ed2-4d54-a639-b79b3e26929a,"In Front of Bus Stop, Pardeshi Galli Main Road, Akkalkuwa, Maharashtra Pincode 425415",,425415,FALSE,TRUE,AKL/MKR,West,Dhule_MIDCAvdn_I,a55fb505-9d60-456c-8b74-06951e5e5ef9
INPBAQRV,Ludhiana_IndustrialAreaA_L,Ludhiana_IndustrialAreaA_L (Punjab),Ludhiana,SC,Active,North,Punjab,India,30.89774,75.871765,77249287-0fc6-44c0-9d44-7a6cc14b67ac,"Plot no 340 , Industrail area A , Near Chimma Chowk Ludhiana -141003",,141003,FALSE,TRUE,LUHB,North,Ludhiana_Khakat_L,b59c8c54-8853-4f7f-b0fc-422c8a847618
INBRAMCI,ValmikiNagar_TankiBazar_D,ValmikiNagar_TankiBazar_D (Bihar),Valmiki Nagar,DC,Active,East,Bihar,India,27.429756,83.908325,23980d2c-ec05-488b-bc2b-d8ad0aaa5566,"SH-64,Main Road,Tanki bazar,valmikinagar,Bihar-845107",8516051853,845107,FALSE,TRUE,VKN/TBZ,East,Motihari_Bariyarpur_I,c824da8b-52c0-49b9-98b8-ef287017cd29
IN784164A1A,Narayanpur_Panbari_D,Narayanpur_Panbari_D (Assam),Narayanpur,DC,Active,East,Assam,India,26.966694,93.84578,5ed9ae6b-364a-47ff-9154-f6439d47e7c5,"NEAR NH 15, INFRONT OF BELAGURI SATRA / P.O.Jonai 784164",8638237966,784164,FALSE,TRUE,NRP/PNB,East,Itanagar_Banderdewa_I,2e9721d4-4457-49d3-b6f2-136710f5d42a
INUPAOKR,Ganjdundwara_CanalRd_D,Ganjdundwara_CanalRd_D (Uttar Pradesh),Ganjdundwara,DC,Active,North,Uttar Pradesh,India,27.727703,78.94014,e4376ff3-c140-411a-bfb5-2fff2b6a21c0,"Canal Raod,Infront of Gaytri Offset, Ganjdundwara, Uttar Pradesh-207242",7417446648,207242,FALSE,TRUE,GAN/CAN,North,Aligarh_BemaNagar_I,74727c05-dd21-43f8-add5-085fc9a218ed
IND477001AAB,Bhind_EtwahDPP_D,Bhind_EtwahDPP_D (Madhya Pradesh),Bhind,DC,Active,West,Madhya Pradesh,India,26.5747,78.79326,fdac18a5-8764-4e0f-ab6c-1ade23033697,"133/36, kushwah colony, beside st. Joseph school, NH-92 , Etawah road, bhind - 477001",,477001,FALSE,TRUE,BIX/ETW,West,Gwalior_PurniChhwani_P,c3369343-8132-4558-8efa-8dba5044039c
IN212201A1B,Bharwari_Mehtaroad_D,Bharwari_Mehtaroad_D (Uttar Pradesh),Bharwari,DC,Inactive,North,Uttar Pradesh,India,25.528566,81.39942,1dc5c6b2-3ada-4042-9c34-d96075a7bb04,BHARWARI MEHTA ROAD KAUSHABHI-212201,9169327007,212201,FALSE,TRUE,BHR/MHT,North,Allahabad_Central_H_1,732cc135-7e2b-4299-a690-d3b45e0c17e6
IND396232AAA,Silvassa_Samrvrni_D,Silvassa_Samrvrni_D (Dadra and Nagar Haveli),Silvassa-DNH,DC,Inactive,West,Dadra and Nagar Haveli,India,20.2567,73.011215,f7b27963-3e67-4c95-b0dd-0034779dd6cf,COMMERCIAL SHOP NO1 GR.FLOOR BLDG: B PRAMUKH SANGAM SAMARVANI SILVASSA DNH 396230,,396234,FALSE,TRUE,VAP/SAM,West,Vapi_GIDC_H,db8f6928-2878-4930-800a-b69ad5e88d5e
IND760003AAA,Berhampur_DC,Berhampur_DC (Orissa),Behrampur,DC,Active,East,Orissa,India,19.285616,84.79578,9c3b00c4-f55d-4149-bafe-c3850ab44cd2,"Plot no:145/13,near khajuria junction,NH 16,,760003,berhampur,dist:ganjam, Odisha",7978424878,760003,FALSE,TRUE,BAM/BAM,East,Berhampur_Khajuria_I,f25f1815-b666-4984-9f5e-c2efdb49fd7d
INARANUC,Naharlagun_Motors_D,Naharlagun_Motors_D (Arunachal Pradesh),Naharlagun,DC,Active,East,Arunachal Pradesh,India,27.1045,93.6675,265a4d9f-7b80-4ff8-a302-0cd216f1e632,"Bucho motors building , Papu Nalah, Naharlagun,791110",9402947219,791110,FALSE,TRUE,NAH/MOT,East,Itanagar_Banderdewa_I,2e9721d4-4457-49d3-b6f2-136710f5d42a
IN211008A1B,Allahabad_Naini_D,Allahabad_Naini_D (Uttar Pradesh),Allahabad,DC,Active,North,Uttar Pradesh,India,25.392805,81.86437,b41ddb66-fa58-48e4-9cd9-8d83d5497389,"14E/2, Daud Nagar, Front of Hotel India, Naini, Allahabad, UP 211008",9979748605,211008,FALSE,TRUE,ALH/NAI,North,Allahabad_Rasulabad_H,e12baae7-109f-4f7f-811f-f59fb0e91284
INARAABU,Naharlagun_SectorA_D,Naharlagun_SectorA_D (Arunachal Pradesh),Naharlagun,DC,Active,East,Arunachal Pradesh,India,27.107,93.702,1f4c53ad-70e2-4530-9d95-527cb72aa061,"A sector, near Rajdhani petrol Pump, naharlagun",9.18E+11,791110,FALSE,TRUE,NHLN/SEC,East,Itanagar_Banderdewa_I,2e9721d4-4457-49d3-b6f2-136710f5d42a
IN249001A1A,Tehri_Baurari_D,Tehri_Baurari_D (Uttarakhand),Tehri,DC,Inactive,North,Uttarakhand,India,30.375969,78.43627,00c3810c-43a4-42a8-b429-c853caed019f,"Bhatt Bhawan, near Post office ,Bauradi, new Tehri",,249001,FALSE,TRUE,THR/BUR,North,Dehradun_RjndrNgr_H,2f6d6225-6ae1-4542-8a93-6d496a4b139c
IN761020A1B,Behrampur_Kanmna_D,Behrampur_Kanmna_D (Orissa),Behrampur,DC,Active,East,Orissa,India,19.35162,84.97374,c37cbfae-e279-4654-be38-f84f19c6c342,"AT purnachatarpur,dist-ganjam,near NH-5,PIN-761020",7978071962,761020,FALSE,TRUE,BHM/KNM,East,Berhampur_Khajuria_I,f25f1815-b666-4984-9f5e-c2efdb49fd7d
INUPAAWK,Chitrakoot_KashaiRd_DPP,Chitrakoot_KashaiRd_DPP (Uttar Pradesh),Chitrakoot,DC,Active,North,Uttar Pradesh,India,25.340069,80.971115,f117c554-f21b-40da-b65a-d62d608ddd9b,Baldauganj Kashai road Karwi chitrakoot 210205,,210205,FALSE,TRUE,CHT/KSH,North,Allahabad_Rasulabad_H,e12baae7-109f-4f7f-811f-f59fb0e91284
INBRALRM,RamnagarBR_Sonkhar_DPP,RamnagarBR_Sonkhar_DPP (Bihar),Ramnagar-BR,DC,Inactive,East,Bihar,India,27.179989,84.33764,6c1b6361-e122-4f30-8370-bad7f1cf5e96,"Sonkhar Near Sahara India Bank,Ramnagar West Champaran Bihar-845106",,845106,FALSE,TRUE,RMG/SOK,East,Motihari_Bariyarpur_I,c824da8b-52c0-49b9-98b8-ef287017cd29
INRJALPI,Khanpur_BaranRd_DPP,Khanpur_BaranRd_DPP (Rajasthan),Khanpur,DC,Inactive,North,Rajasthan,India,24.43452,76.23309,947e1832-1344-4631-8e62-38cdebe686e8,Near jama masjid baran road khanpur 326038,,326038,FALSE,TRUE,KNP/BRD,North,Kota_Trnsprtngr_I,f0de160e-a8c2-4228-a7ab-15b8c80a760a
IND425109AAA,Erandol_BsStdDPP_D,Erandol_BsStdDPP_D (Maharashtra),Erandol,DC,Inactive,West,Maharashtra,India,20.926392,75.32501,ab620327-3ff5-48a1-81fd-b1893fe43199,"Plot no.6,Shoki complex,opp.Himalaya petrol pump,Near bus stand,Erandol,Jalgaon,Maharastra-425109.

",,425109,FALSE,TRUE,ERN/BST,West,Dhule_MIDCAvdn_I,a55fb505-9d60-456c-8b74-06951e5e5ef9
IND765022AAA,Gunupur_BpsRDDPP_D,Gunupur_BpsRDDPP_D (Orissa),Gunupur,DC,Inactive,East,Orissa,India,19.075464,83.81283,8290119a-1483-4992-accf-ecdd63a0310b,"Neelachakra Nagar near SBI Bank Gunupur Bypass Rd, Gunupur, Odisha 765022",,765022,FALSE,FALSE,GNP/BPS,East,Berhampur_Khajuria_I,f25f1815-b666-4984-9f5e-c2efdb49fd7d
IND230131AAA,Pratapgarh_Katra_D,Pratapgarh_Katra_D (Uttar Pradesh),Pratapgarh,DC,Active,North,Uttar Pradesh,India,25.88185,81.94825,4da3acd6-f00f-40b9-a4cd-0b6f41d3401c,"Prabha School, Katra, Mehndi Ganj Chauraha, Pratapgarh, UP-230131",9628899903,230131,FALSE,TRUE,BPH/MGC,North,Allahabad_Rasulabad_H,e12baae7-109f-4f7f-811f-f59fb0e91284
IND202280AAA,Atrauli_Charrard_D,Atrauli_Charrard_D (Uttar Pradesh),Aligarh,DC,Active,North,Uttar Pradesh,India,28.026346,78.281876,df4c5b78-de94-47da-8778-fdce31263bee,"Mohalla Saray Khokhal, Kailashpati Cinema, Chharra Road, Atrauli, UP 202280",9818194624,202280,FALSE,TRUE,ATR/CHR,North,Aligarh_BemaNagar_I,74727c05-dd21-43f8-add5-085fc9a218ed
INKAAMTC,Belgaum_GandhiNgr_D,Belgaum_GandhiNgr_D (Karnataka),Belgaum,DC,Deboarding,South,Karnataka,India,15.849981,74.53597,86141a02-7ea1-4b47-a348-11bb3e53a6b1,"NH-4, Harikaka Compound, Tal & Dist Belgaum, Karnataka-590016",9731436325,590016,FALSE,FALSE,BGM/GDN,South,Belgaum_GandhiNgr_I,cd016151-f102-4da7-b69f-84d52427894e
INGJARYJ,Vapi_Valwada_L,Vapi_Valwada_L (Gujarat),Vapi,SC,Deboarding,West,Gujarat,India,20.323755,72.90418,d9a5ac3f-189c-47ad-b2c5-bcb5910f700c,"Shirish B.Desai & Brothers, Opp- Mohangam Crossing,National Highway No-8,Vill-valwada Tal- Umbergaon , Dist- Valsad Pin - 396105",,396105,FALSE,TRUE,VAP/ADA,West,Vapi_GIDC_H,db8f6928-2878-4930-800a-b69ad5e88d5e
INMHAPAJ,Gadhinglaj_MarathiSchool_D,Gadhinglaj_MarathiSchool_D (Maharashtra),Gadhinglaj,DC,Inactive,West,Maharashtra,India,16.209497,74.33568,1923eaef-2a5d-4078-ba20-ef89f68390ee,"1667, Near Marathi School, Gadhingaj Kolhapur Maharashtra -416502",9423237527,416502,FALSE,FALSE,GAD/MAR,West,Belgaum_GandhiNgr_I,cd016151-f102-4da7-b69f-84d52427894e
INHPALTJ,Dheera_Purba_DPP,Dheera_Purba_DPP (Himachal Pradesh),Dheera,DC,Active,North,Himachal Pradesh,India,31.965036,76.44933,6706f13d-11e1-47ab-bb3f-a39a24e11144,"VPO-PURBA, TEH-DHEERA DISTT-KANGRA, HP PIN CODE- 176084",,176084,FALSE,TRUE,DHE/PRB,North,BilaspurHP_Kothi_I,dc79c3ab-80ee-4856-95eb-848b80102297
IND761118AAB,Buguda_BlockDPP_D,Buguda_BlockDPP_D (Orissa),Buguda,DC,Inactive,East,Orissa,India,19.81601,84.79173,16f3f893-486a-44ca-bd53-eedcb850fd6e,"MAHALAXMI ONLINE SERVICE CENTER,NAINROAD,NEAR-BLOCK OFFICE,Buguda 
761118",,761118,FALSE,FALSE,KIT/BLC,East,Berhampur_Khajuria_I,f25f1815-b666-4984-9f5e-c2efdb49fd7d
INMHAQQX,Jalgaon_AqsaNagar_L,Jalgaon_AqsaNagar_L (Maharashtra),Jalgaon,SC,Deboarding,West,Maharashtra,India,20.997572,75.57629,3ef536a1-e75d-41c0-a27b-6c3ef318d37f,"R.N. Park, Shop No.1, Hotel Kasturi, MIDC, Rameshwar Colony Road, Merun, Jalgaon-425001",,425001,FALSE,FALSE,JLGF,West,Dhule_MIDC_I,a44f0a3f-ce40-4032-9750-85077642f099
IND124111AAA,Madima_BstnDPP_D,Madima_BstnDPP_D (Haryana),Madina,DC,Inactive,North,Haryana,India,28.935904,76.4369,9486f083-25e0-4e7f-bde8-5532ab238b30,"Shop no.6, Main Bus stand, Vill MADINA TEHSIL MEHAM DISTRICT ROHTAK-124111 Haryana",,124111,FALSE,FALSE,SMF/MAD,North,Gurgaon_Bilaspur_P,828acd1c-fa6c-43fc-94da-cc33bac208b2
IND207123AAA,Kasganj_BnkrGate_D,Kasganj_BnkrGate_D (Uttar Pradesh),Kasganj,DC,Inactive,North,Uttar Pradesh,India,27.727703,78.94015,d5154d8b-4b32-4463-b1fc-d5824aecf197,"Bankner Nadrai Gate, Near Railway Over Bridge, Kasganj, Etah, U.P. 207123",9149362885,207123,FALSE,TRUE,KSJ/BNG,North,Aligarh_BemaNagar_I,74727c05-dd21-43f8-add5-085fc9a218ed
IN176039A1A,Dulchehra_Rapar_DPP,Dulchehra_Rapar_DPP (Himachal Pradesh),Dulchehra,DC,Active,North,Himachal Pradesh,India,31.474442,76.55157,ff90f43d-e080-4a89-abe3-5b3dc4b5fbca,"BABA BALAK NATH COURIER SERVICES, V.P.O. CHAKMOH, TEHSIL BARSAR, DISTT. HAMIRPUR, HIMACHAL PRADESH, PIN - 176039",,176039,FALSE,TRUE,DCH/RPR,North,BilaspurHP_Kothi_I,dc79c3ab-80ee-4856-95eb-848b80102297
IND413532AAA,Jalkot_MnRDDPP_D,Jalkot_MnRDDPP_D (Maharashtra),Jalkot,DC,Inactive,West,Maharashtra,India,18.628277,77.17871,1f4da0e9-8257-4de2-b667-50abf95b8725,Main road jalkot -413532,,413532,FALSE,FALSE,JLK/MNR,West,Pune_PC,305e78ba-7e63-423b-bd75-3b5e12666290
INKAAQVO,Belgaum_RamteerthNagar_H,Belgaum_RamteerthNagar_H (Karnataka),Belgaum,HUB,Inactive,South,Karnataka,India,15.895389,74.540886,1beff2f0-2ff0-4b4d-8e02-82544ef79a23,"Startrek Logistics Pvt Ltd, 2449, SBM,Mahantesh Nagar,Belgaum",,590015,FALSE,FALSE,BGMH,South,Belgaum_GandhiNgr_I,cd016151-f102-4da7-b69f-84d52427894e
INBRAAKK,Bettiah_Banuchpar_D,Bettiah_Banuchpar_D (Bihar),Bettiah,DC,Active,East,Bihar,India,26.80425,84.52235,3ea6dbba-6327-4eba-97fa-2e9a2813bfac,"Station road, near urvashi cinema hall, Bettiah-845438",7667215349,845438,FALSE,TRUE,BTH/BNC,East,Motihari_Bariyarpur_I,c824da8b-52c0-49b9-98b8-ef287017cd29
IN791111A1D,Itanagar_SectorA_D,Itanagar_SectorA_D (Arunachal Pradesh),Itanagar,DC,Active,East,Arunachal Pradesh,India,27.102201,93.63457,f4a5dff4-4acf-4bf1-ac3c-76c7ae4f3023,"Sector A, Rajbhawan road, Itanagar 791111",7629999252,791111,FALSE,TRUE,ITOA/SCT,East,Itanagar_Banderdewa_I,2e9721d4-4457-49d3-b6f2-136710f5d42a
IND243601AAB,Budaun_Central_D_2,Budaun_Central_D_2 (Uttar Pradesh),Budaun,DC,Inactive,North,Uttar Pradesh,India,28.020655,79.13652,97627a08-e7eb-4da2-b1d5-2fe534ee9c56,"Mohalla Brahampur, Near Razi Chowk, Budaun, UP 243601",9.20E+11,243601,FALSE,TRUE,BEM/CNT,North,Aligarh_BemaNagar_I,74727c05-dd21-43f8-add5-085fc9a218ed
IND521105AAA,HanumanJNC_VijywdRD_D,HanumanJNC_VijywdRD_D (Andhra Pradesh),Hanuman Junction,DC,Inactive,South,Andhra Pradesh,India,16.634062,80.96419,3011d561-3487-4b10-998b-a9f675c7dbb1,"Near Police station,Viajayawada Road,Hanuman Junction,Andhra Pradesh-521105",,521105,FALSE,FALSE,HNM/JNC,South,Vijayawada_Tadpali_H,dd60e9f7-3399-4bc4-8214-5372e6ef3435
IN413736A1A,Loni_Rajhuns_D,Loni_Rajhuns_D (Maharashtra),Loni,DC,Inactive,West,Maharashtra,India,19.574594,74.460075,3b17b9e2-168c-4046-9c03-db43057051d7,"Shop No 2 , AP Complex, Hasnapur road , Musale Vasti ,At post, Loni,Tal-Rahata.Dist-Ahmednagar, Maharashtra Pincode 413736",,413736,FALSE,TRUE,LNI/RJH,West,Ahmednagar_AnadNgr_I,99b22365-fd12-4309-ab18-7aa14330d7f3
IN131301A1B,Gohana_Kandri_DPP,Gohana_Kandri_DPP (Haryana),Gohana,DC,Inactive,North,Haryana,India,29.14439,76.71472,8cedc6c9-696a-4898-9d19-d20d89cbd027,"shree shyam services  near khanpur mode , Gohana Haryana 131301",,131301,FALSE,FALSE,GHA/KDR,North,Sonipat_Kundli_P,ae14ffb3-4c0e-4834-be08-d84910cd18d3
INMHAAWK,Tirora_Chikhali_D,Tirora_Chikhali_D (Maharashtra),Tirora,DC,Inactive,West,Maharashtra,India,21.410809,79.92885,a80b5888-505c-4dcf-9b00-8362a8898876,"Khushal Zarariya Complex, Station Road Tirora, Near Snehal Talkies, Tirora  Maharashtra 441911",,441911,FALSE,FALSE,TIR/CHK,West,Nagpur_Nimji_H,818f929e-8a7d-4b57-941a-7e22df9044a9
INASAQVY,Guwahati_Amingaon_H,Guwahati_Amingaon_H (Assam),Guwahati,HUB,Deboarding,East,Assam,India,26.20767,91.6825,12da882f-767e-43e9-b768-e84593558a07,"SPOTON Logistics Pvt Ltd, NH-31, Near Narayana Hospital, Amingaon,Guwahati, 781031",,781031,FALSE,FALSE,GAUH,East,Guwahati_Kaikchi_GW,7319a109-3eb1-4006-a339-167743387b03
IN341503A1C,Degana_KrshiMndi_DPP,Degana_KrshiMndi_DPP (Rajasthan),Degana,DC,Inactive,North,Rajasthan,India,26.895348,74.31903,df85e78c-4407-4fb3-83bd-d08265a8e5d4,"Delhivery Pvt Ltd, Railways station road sadar bazar Degana 341503",,341503,FALSE,FALSE,DNA/KMD,North,Ajmer_Parbatpura_I,fc4d665f-22dc-41fa-a579-4957cecfe400
IND741502AAB,Hanskhali_Central_D_1,Hanskhali_Central_D_1 (West Bengal),Hanskhali,DC,Active,East,West Bengal,India,23.341183,88.645004,669ab031-6fd9-43f3-bd9f-35c719135d2c,"Nonagaunje Road ,Station Para.Bagula.Pin-741502",8777266259,741502,FALSE,TRUE,HKL/CNT,East,Krishnanagar_Bhatjangla_I,472d01e8-f3e4-4c1d-8799-9cfbba25bbdf
INRJARHU,Dhorimana_Gudamalani_D,Dhorimana_Gudamalani_D (Rajasthan),Dhorimana,DC,Active,North,Rajasthan,India,25.200197,71.71516,fea7abfc-1a46-4ad5-98b0-de5b344e9d6d,"Back Side DTDC Express Limite, Opp. Annapurna Aasharm, Jodhpur Road, Gudamalani, Rajasthan- 344031",8239400094,344031,FALSE,TRUE,DHO/MAL,North,Pali_SuryaColony_I,c0c402c8-1f20-4a06-8f7d-c15d321bec7e
IN783124A1A,Dudhnoi_Thekshu_D,Dudhnoi_Thekshu_D (Assam),Dudhnoi,DC,Inactive,East,Assam,India,25.973919,90.781555,cc82b77c-bfa3-4818-8776-a1582752f7cb,Thakasu Part-1 Damra road P.O: Dudhnoi Dist: Goalpara Pin: 783124,,783124,FALSE,TRUE,DHK/THU,East,Guwahati_Kaikchi_GW,7319a109-3eb1-4006-a339-167743387b03
INASARHX,Udalguri_Ward4_DPP,Udalguri_Ward4_DPP (Assam),Udalguri,DC,Active,East,Assam,India,26.73948,92.09163,c9708375-df17-46db-a721-dafd88e63b85,"SATKATI, UDALGURI,NEAR BY  FSSAI WAREHOUSE,Assam-784509	",,784509,FALSE,TRUE,UDA/WAR,East,Guwahati_Kaikchi_GW,7319a109-3eb1-4006-a339-167743387b03
INMHANAP,Chandwad_MarketYrd_DPP,Chandwad_MarketYrd_DPP (Maharashtra),Chandwad,DC,Active,West,Maharashtra,India,20.329845,74.23373,2f41ca09-f097-487d-8d5f-973f1c75f4f5,"Shop no 19, Market yard near HDFC Bank Chandvad-423101",,423101,FALSE,TRUE,CDW/MYD,West,Nashik_BphnaWhsng_I,d3ae7c42-51c6-4d79-b061-8ca7d26b48c6
IND501401AAA,Medchal_BwnpyDPP_D,Medchal_BwnpyDPP_D (Telangana),Medchal,DC,Inactive,South,Telangana,India,17.471605,78.483665,858d8571-da2b-4635-91d7-c92f5e591123,"8-5-309/2, OLD BOWENPALLY, VITTAL ENCLAVE, BESIDE LINE ANDHRA BANK",,501401,FALSE,TRUE,MDC/BWN,South,Hyderabad_Alwal_I,92300796-1d08-4783-ad47-8d9915dd1e35
IND000000AAU,Goalpara_BapujNgr_D,Goalpara_BapujNgr_D (Assam),Goalpara,DC,Inactive,East,Assam,India,26.177515,90.614975,b4895e0a-d758-476a-aeda-47d8b8f170c2,"Near UCO Bank , Krishnai Chariali & Krishnai Madrassa High School, Krishnai , Goalpara - 783126",,783126,FALSE,FALSE,GLPT/BJD,East,Guwahati_Kaikchi_GW,7319a109-3eb1-4006-a339-167743387b03
IND782435AAA,Hojai_KediaRd_D,Hojai_KediaRd_D (Assam),Hojai,DC,Inactive,East,Assam,India,26.000511,92.85534,49a6b213-e6d1-48d9-8dbd-ff3114209db2,"Jugal Kishore kedia road (Main bylane) / Swarupnanda road (Sub bylane ) ,Hojai, Naogaon 782435  Assam",7002387116,782435,FALSE,TRUE,HJI/KED,East,Guwahati_Kaikchi_GW,7319a109-3eb1-4006-a339-167743387b03
INAPAAMF,HanumanJNC_NuzividuRd_DPP,HanumanJNC_NuzividuRd_DPP (Andhra Pradesh),Hanuman Junction,DC,Inactive,South,Andhra Pradesh,India,16.635998,80.97078,a1674fbe-d35e-49c3-b6aa-e77a848ff274,"Shop No.1 Beside Hai Tea Stall, Nuzividu Road, Bapulapdu, Hanuman Junction",,521105,FALSE,FALSE,HNM/NZV,South,Vijayawada_Tadpali_H,dd60e9f7-3399-4bc4-8214-5372e6ef3435
IN781018A1E,Guwahati_Kaikchi_L,Guwahati_Kaikchi_L (Assam),Guwahati,SC,Active,East,Assam,India,26.100065,91.62018,84dd5765-7f95-4968-8207-298c56200c0d,"Dag No  615, 617,620,623,624,625,616 Patta No  62, 67, 68, 224,371,407,511 Village Kahikuchi Gaon Mouza Dakhin Rani Revenue Circle Azara Dist Kamrup (M)",,781018,FALSE,TRUE,GWH/KCH,East,Guwahati_Kaikchi_GW,7319a109-3eb1-4006-a339-167743387b03
INAPAAPW,Nandyal_SaleemNgr_D,Nandyal_SaleemNgr_D (Andhra Pradesh),Nandyal,DC,Active,South,Andhra Pradesh,India,15.484,78.476,41f23054-e9c8-49e5-929a-efb16f2dfb1f,"#25-395-15-b1,Saleem nagar,Padmavathi nagar road,Nandyal,Andhra Pradesh-518501",,518501,FALSE,TRUE,NDL/SLM,South,Kurnool_Dinnedevrpdu_I,beeeabea-a1dc-4fd0-879f-41d4cd18e483
